{"NDP": {"code": "NDP", "countryCode": "US", "country": "United States", "geoloc": {"lat": "30.526944", "lng": "-87.198056"}, "nearestCity": "Pensacola, FL", "airportName": "Ellyson NAS"}, "HEN": {"code": "HEN", "countryCode": "GB", "country": "United Kingdom", "geoloc": {"lat": "51.583333", "lng": "-0.233333"}, "nearestCity": "Hendon", "airportName": "Hendon"}, "SPY": {"code": "SPY", "countryCode": "CI", "country": "Cote D'Ivoire", "geoloc": {"lat": "4.733333", "lng": "-6.666667"}, "nearestCity": "San Pedro", "airportName": "San Pedro"}, "SPZ": {"code": "SPZ", "countryCode": "US", "country": "United States", "geoloc": {"lat": "36.183333", "lng": "-94.133333"}, "nearestCity": "Springdale", "airportName": "Springdale Muni"}, "HEO": {"code": "HEO", "countryCode": "PG", "country": "Papua New Guinea", "geoloc": {"lat": "-9.133333", "lng": "147.583333"}, "nearestCity": "Haelogo", "airportName": "Haelogo"}, "SPP": {"code": "SPP", "countryCode": "AO", "country": "Angola", "geoloc": {"lat": "-14.633333", "lng": "17.733333"}, "nearestCity": "Menongue", "airportName": "Menongue"}, "NDU": {"code": "NDU", "countryCode": "NA", "country": "Namibia", "geoloc": {"lat": "-17.966667", "lng": "19.716667"}, "nearestCity": "Rundu", "airportName": "Rundu"}, "SPR": {"code": "SPR", "countryCode": "BZ", "country": "Belize", "geoloc": {"lat": "17.916667", "lng": "-87.966667"}, "nearestCity": "San Pedro", "airportName": "San Pedro"}, "SPS": {"code": "SPS", "countryCode": "US", "country": "United States", "geoloc": {"lat": "33.983333", "lng": "-98.516667"}, "nearestCity": "Wichita Falls", "airportName": "Sheppard AFB"}, "SPT": {"code": "SPT", "countryCode": "MY", "country": "Malaysia", "geoloc": {"lat": "5.083333", "lng": "115.550000"}, "nearestCity": "Sipitang", "airportName": "Sipitang"}, "SPU": {"code": "SPU", "countryCode": "HR", "country": "Croatia", "geoloc": {"lat": "43.533333", "lng": "16.300000"}, "nearestCity": "Split", "airportName": "Split"}, "SPV": {"code": "SPV", "countryCode": "PG", "country": "Papua New Guinea", "geoloc": {"lat": "-3.900000", "lng": "143.683333"}, "nearestCity": "Sepik Plains", "airportName": "Sepik Plains"}, "SPW": {"code": "SPW", "countryCode": "US", "country": "United States", "geoloc": {"lat": "43.166667", "lng": "-95.183333"}, "nearestCity": "Spencer", "airportName": "Municipal"}, "SPH": {"code": "SPH", "countryCode": "PG", "country": "Papua New Guinea", "geoloc": {"lat": "-9.000000", "lng": "147.766667"}, "nearestCity": "Sopu", "airportName": "Sopu"}, "SPI": {"code": "SPI", "countryCode": "US", "country": "United States", "geoloc": {"lat": "39.850000", "lng": "-89.683333"}, "nearestCity": "Springfield", "airportName": "Capital"}, "SPJ": {"code": "SPJ", "countryCode": "GR", "country": "Greece", "geoloc": {"lat": "37.936389", "lng": "23.944444"}, "nearestCity": "Athens", "airportName": "Eleftherios Venizelos"}, "SPM": {"code": "SPM", "countryCode": "DE", "country": "Germany", "geoloc": {"lat": "49.983333", "lng": "6.683333"}, "nearestCity": "Spangdahlem", "airportName": "Spangdahlem"}, "SPN": {"code": "SPN", "countryCode": "MP", "country": "Northern Mariana Islands", "geoloc": {"lat": "15.133333", "lng": "145.700000"}, "nearestCity": "Saipan", "airportName": "International"}, "SPO": {"code": "SPO", "countryCode": "ES", "country": "Spain", "geoloc": {"lat": "37.418056", "lng": "-5.893056"}, "nearestCity": "Sevilla", "airportName": "San Pablo"}, "SPA": {"code": "SPA", "countryCode": "US", "country": "United States", "geoloc": {"lat": "34.915833", "lng": "-81.956389"}, "nearestCity": "Spartanburg, SC", "airportName": "Spartanburg, Downtown Memorial"}, "SPC": {"code": "SPC", "countryCode": "ES", "country": "Spain", "geoloc": {"lat": "28.683333", "lng": "-17.750000"}, "nearestCity": "Santa Cruz De La Palma", "airportName": "La Palma"}, "SPD": {"code": "SPD", "countryCode": "BD", "country": "Bangladesh", "geoloc": {"lat": "25.766667", "lng": "88.766667"}, "nearestCity": "Saidpur", "airportName": "Saidpur"}, "SPE": {"code": "SPE", "countryCode": "MY", "country": "Malaysia", "geoloc": {"lat": "4.716667", "lng": "116.466667"}, "nearestCity": "Sepulot", "airportName": "Sepulot"}, "SPF": {"code": "SPF", "countryCode": "US", "country": "United States", "geoloc": {"lat": "44.483333", "lng": "-103.850000"}, "nearestCity": "Spearfish", "airportName": "Black Hills"}, "XPK": {"code": "XPK", "countryCode": "CA", "country": "Canada", "geoloc": {"lat": "55.800000", "lng": "-101.416667"}, "nearestCity": "Pukatawagan", "airportName": "Pukatawagan"}, "XPJ": {"code": "XPJ", "countryCode": "FR", "country": "France", "geoloc": {"lat": "45.633333", "lng": "-0.750000"}, "nearestCity": "Montpellier", "airportName": "Montpellier Railway"}, "IXH": {"code": "IXH", "countryCode": "IN", "country": "India", "geoloc": {"lat": "24.316667", "lng": "92.016667"}, "nearestCity": "Kailashahar", "airportName": "Kailashahar"}, "IXI": {"code": "IXI", "countryCode": "IN", "country": "India", "geoloc": {"lat": "27.266667", "lng": "94.100000"}, "nearestCity": "Lilabari", "airportName": "Lilabari"}, "IXN": {"code": "IXN", "countryCode": "IN", "country": "India", "geoloc": {"lat": "24.066667", "lng": "91.633333"}, "nearestCity": "Khowai", "airportName": "Khowai"}, "IXL": {"code": "IXL", "countryCode": "IN", "country": "India", "geoloc": {"lat": "34.166667", "lng": "77.583333"}, "nearestCity": "Leh", "airportName": "Bakula Rimpoche"}, "XPL": {"code": "XPL", "countryCode": "HN", "country": "Honduras", "geoloc": {"lat": "14.382500", "lng": "-87.621111"}, "nearestCity": "Comayagua", "airportName": "Coronel Enrique Soto Cano AB"}, "IXB": {"code": "IXB", "countryCode": "IN", "country": "India", "geoloc": {"lat": "26.733333", "lng": "88.333333"}, "nearestCity": "Bagdogra", "airportName": "Bagdogra"}, "IXC": {"code": "IXC", "countryCode": "IN", "country": "India", "geoloc": {"lat": "30.666667", "lng": "76.800000"}, "nearestCity": "Chandigarh", "airportName": "Chandigarh"}, "XPA": {"code": "XPA", "countryCode": "BF", "country": "Burkina Faso", "geoloc": {"lat": "11.250000", "lng": "0.700000"}, "nearestCity": "Pama", "airportName": "Pama"}, "IXA": {"code": "IXA", "countryCode": "IN", "country": "India", "geoloc": {"lat": "23.900000", "lng": "91.250000"}, "nearestCity": "Agartala", "airportName": "Singerbhil"}, "IXG": {"code": "IXG", "countryCode": "IN", "country": "India", "geoloc": {"lat": "15.850000", "lng": "74.600000"}, "nearestCity": "Belgaum", "airportName": "Sambre"}, "IXD": {"code": "IXD", "countryCode": "IN", "country": "India", "geoloc": {"lat": "25.433333", "lng": "81.733333"}, "nearestCity": "Allahabad", "airportName": "Bamrauli"}, "IXE": {"code": "IXE", "countryCode": "IN", "country": "India", "geoloc": {"lat": "12.961389", "lng": "74.890000"}, "nearestCity": "Mangalore", "airportName": "Bajpe"}, "IXZ": {"code": "IXZ", "countryCode": "IN", "country": "India", "geoloc": {"lat": "11.666667", "lng": "92.733333"}, "nearestCity": "Port Blair", "airportName": "Port Blair"}, "XPZ": {"code": "XPZ", "countryCode": "FR", "country": "France", "geoloc": {"lat": "46.766667", "lng": "2.816667"}, "nearestCity": "Saint Tropez", "airportName": "Harbour"}, "AIM": {"code": "AIM", "countryCode": "MH", "country": "Marshall Islands", "geoloc": {"lat": "10.200000", "lng": "169.983333"}, "nearestCity": "Ailuk Island", "airportName": "Ailuk Island"}, "IXY": {"code": "IXY", "countryCode": "IN", "country": "India", "geoloc": {"lat": "23.116667", "lng": "70.100000"}, "nearestCity": "Kandla", "airportName": "Kandla"}, "IXR": {"code": "IXR", "countryCode": "IN", "country": "India", "geoloc": {"lat": "23.314167", "lng": "85.321667"}, "nearestCity": "Ranchi", "airportName": "Birsa Munda International"}, "IXS": {"code": "IXS", "countryCode": "IN", "country": "India", "geoloc": {"lat": "24.966667", "lng": "92.516667"}, "nearestCity": "Silchar", "airportName": "Kumbhirgram"}, "IXP": {"code": "IXP", "countryCode": "IN", "country": "India", "geoloc": {"lat": "32.233333", "lng": "75.633333"}, "nearestCity": "Pathankot", "airportName": "Pathankot"}, "XPP": {"code": "XPP", "countryCode": "CA", "country": "Canada", "geoloc": {"lat": "53.000000", "lng": "-97.400000"}, "nearestCity": "Poplar River", "airportName": "Poplar River"}, "IXV": {"code": "IXV", "countryCode": "IN", "country": "India", "geoloc": {"lat": "28.416667", "lng": "94.841667"}, "nearestCity": "Along", "airportName": "Along"}, "IXW": {"code": "IXW", "countryCode": "IN", "country": "India", "geoloc": {"lat": "22.816667", "lng": "86.166667"}, "nearestCity": "Jamshedpur", "airportName": "Sonari"}, "IXT": {"code": "IXT", "countryCode": "IN", "country": "India", "geoloc": {"lat": "28.066667", "lng": "95.366667"}, "nearestCity": "Pasighat", "airportName": "Pasighat"}, "IXU": {"code": "IXU", "countryCode": "IN", "country": "India", "geoloc": {"lat": "19.883333", "lng": "75.416667"}, "nearestCity": "Aurangabad", "airportName": "Chikkalthana"}, "JNS": {"code": "JNS", "countryCode": "GL", "country": "Greenland", "geoloc": {"lat": "61.033333", "lng": "-45.533333"}, "nearestCity": "Narsaq", "airportName": "Heliport"}, "JNP": {"code": "JNP", "countryCode": "US", "country": "United States", "geoloc": {"lat": "33.600000", "lng": "-117.883333"}, "nearestCity": "Newport Beach", "airportName": "Heliport"}, "JNU": {"code": "JNU", "countryCode": "US", "country": "United States", "geoloc": {"lat": "58.350000", "lng": "-134.583333"}, "nearestCity": "Juneau", "airportName": "Boundary Bay"}, "JNZ": {"code": "JNZ", "countryCode": "CN", "country": "China", "geoloc": {"lat": "39.100000", "lng": "121.716667"}, "nearestCity": "Jinzhou", "airportName": "Jinzhou"}, "JNX": {"code": "JNX", "countryCode": "GR", "country": "Greece", "geoloc": {"lat": "37.080556", "lng": "25.368056"}, "nearestCity": "Naxos", "airportName": "Naxos Airport"}, "PQM": {"code": "PQM", "countryCode": "MX", "country": "Mexico", "geoloc": {"lat": "17.500000", "lng": "-92.008333"}, "nearestCity": "Palenque", "airportName": "Palenque"}, "PQQ": {"code": "PQQ", "countryCode": "AU", "country": "Australia", "geoloc": {"lat": "-31.633333", "lng": "152.916667"}, "nearestCity": "Port Macquarie", "airportName": "Port Macquarie"}, "JNA": {"code": "JNA", "countryCode": "BR", "country": "Brazil", "geoloc": {"lat": "-15.473889", "lng": "-44.385556"}, "nearestCity": "Januaria", "airportName": "Januaria"}, "PQS": {"code": "PQS", "countryCode": "US", "country": "United States", "geoloc": {"lat": "61.933333", "lng": "-162.883333"}, "nearestCity": "Pilot Station", "airportName": "Pilot Station"}, "JNG": {"code": "JNG", "countryCode": "CN", "country": "China", "geoloc": {"lat": "41.027500", "lng": "113.105833"}, "nearestCity": "Jining", "airportName": "Jining"}, "JNI": {"code": "JNI", "countryCode": "AR", "country": "Argentina", "geoloc": {"lat": "-34.583333", "lng": "-60.966667"}, "nearestCity": "Junin", "airportName": "Junin"}, "JNH": {"code": "JNH", "countryCode": "US", "country": "United States", "geoloc": {"lat": "7.716667", "lng": "40.916667"}, "nearestCity": "Dallas", "airportName": "North Park Inn H/P"}, "JNN": {"code": "JNN", "countryCode": "GL", "country": "Greenland", "geoloc": {"lat": "60.150000", "lng": "-45.216667"}, "nearestCity": "Nanortalik", "airportName": "Nanortalik"}, "BEJ": {"code": "BEJ", "countryCode": "ID", "country": "Indonesia", "geoloc": {"lat": "2.155556", "lng": "117.432222"}, "nearestCity": "Tanjung Redep", "airportName": "Kalimaru"}, "BEK": {"code": "BEK", "countryCode": "IN", "country": "India", "geoloc": {"lat": "26.216667", "lng": "81.233333"}, "nearestCity": "Bareli", "airportName": "Bareli"}, "BEH": {"code": "BEH", "countryCode": "US", "country": "United States", "geoloc": {"lat": "42.133333", "lng": "-86.433333"}, "nearestCity": "Benton Harbor", "airportName": "Ross Field"}, "BEI": {"code": "BEI", "countryCode": "ET", "country": "Ethiopia", "geoloc": {"lat": "9.383333", "lng": "34.533333"}, "nearestCity": "Beica", "airportName": "Beica"}, "BEN": {"code": "BEN", "countryCode": "LY", "country": "Libya", "geoloc": {"lat": "32.116667", "lng": "20.066667"}, "nearestCity": "Benghazi", "airportName": "Benina Intl"}, "BEO": {"code": "BEO", "countryCode": "AU", "country": "Australia", "geoloc": {"lat": "-33.033333", "lng": "151.666667"}, "nearestCity": "Newcastle", "airportName": "Belmont"}, "BEL": {"code": "BEL", "countryCode": "BR", "country": "Brazil", "geoloc": {"lat": "-1.383611", "lng": "-48.468611"}, "nearestCity": "Belem", "airportName": "Val De Cans"}, "BEM": {"code": "BEM", "countryCode": "CF", "country": "Central African Republic", "geoloc": {"lat": "5.266667", "lng": "17.650000"}, "nearestCity": "Bossembele", "airportName": "Bossembele"}, "BEB": {"code": "BEB", "countryCode": "GB", "country": "United Kingdom", "geoloc": {"lat": "57.483333", "lng": "-7.366667"}, "nearestCity": "Benbecula", "airportName": "Benbecula"}, "BEC": {"code": "BEC", "countryCode": "US", "country": "United States", "geoloc": {"lat": "37.686389", "lng": "-97.221111"}, "nearestCity": "Wichita", "airportName": "Beech"}, "BEA": {"code": "BEA", "countryCode": "PG", "country": "Papua New Guinea", "geoloc": {"lat": "-8.650000", "lng": "146.483333"}, "nearestCity": "Bereina", "airportName": "Bereina"}, "BEF": {"code": "BEF", "countryCode": "NI", "country": "Nicaragua", "geoloc": {"lat": "12.033333", "lng": "-83.983333"}, "nearestCity": "Bluefields", "airportName": "Bluefields"}, "BEG": {"code": "BEG", "countryCode": "RS", "country": "Serbia", "geoloc": {"lat": "44.819167", "lng": "20.306944"}, "nearestCity": "Belgrade", "airportName": "Nikola Tesla"}, "BED": {"code": "BED", "countryCode": "US", "country": "United States", "geoloc": {"lat": "42.466667", "lng": "-71.283333"}, "nearestCity": "Bedford/Hanscom", "airportName": "Hanscom Field"}, "BEE": {"code": "BEE", "countryCode": "AU", "country": "Australia", "geoloc": {"lat": "-12.983333", "lng": "141.600000"}, "nearestCity": "Beagle Bay", "airportName": "Beagle Bay"}, "BEZ": {"code": "BEZ", "countryCode": "KI", "country": "Kiribati", "geoloc": {"lat": "-1.333333", "lng": "176.000000"}, "nearestCity": "Beru", "airportName": "Beru"}, "BEY": {"code": "BEY", "countryCode": "LB", "country": "Lebanon", "geoloc": {"lat": "33.820833", "lng": "35.488333"}, "nearestCity": "Beirut", "airportName": "Beirut Rafic Hariri Airport"}, "BER": {"code": "BER", "countryCode": "DE", "country": "Germany", "geoloc": {"lat": "52.516667", "lng": "13.400000"}, "nearestCity": "Berlin", "airportName": "Berlin Metropolitan Area"}, "BES": {"code": "BES", "countryCode": "FR", "country": "France", "geoloc": {"lat": "48.450000", "lng": "-4.416667"}, "nearestCity": "Brest", "airportName": "Brest Lesquin"}, "BEP": {"code": "BEP", "countryCode": "IN", "country": "India", "geoloc": {"lat": "15.162778", "lng": "76.882778"}, "nearestCity": "Bellary", "airportName": "Bellary"}, "BEQ": {"code": "BEQ", "countryCode": "GB", "country": "United Kingdom", "geoloc": {"lat": "52.350000", "lng": "0.766667"}, "nearestCity": "Bury St Edmunds", "airportName": "Honington"}, "BEV": {"code": "BEV", "countryCode": "IL", "country": "Israel", "geoloc": {"lat": "31.250000", "lng": "34.800000"}, "nearestCity": "Beer Sheba", "airportName": "Beer Sheba"}, "BEW": {"code": "BEW", "countryCode": "MZ", "country": "Mozambique", "geoloc": {"lat": "-19.800000", "lng": "34.900000"}, "nearestCity": "Beira", "airportName": "Beira"}, "BET": {"code": "BET", "countryCode": "US", "country": "United States", "geoloc": {"lat": "60.783333", "lng": "-161.833333"}, "nearestCity": "Bethel", "airportName": "Bethel Airport"}, "BEU": {"code": "BEU", "countryCode": "AU", "country": "Australia", "geoloc": {"lat": "-24.333333", "lng": "139.366667"}, "nearestCity": "Bedourie", "airportName": "Bedourie"}, "AIN": {"code": "AIN", "countryCode": "US", "country": "United States", "geoloc": {"lat": "70.633333", "lng": "-160.033333"}, "nearestCity": "Wainwright", "airportName": "Wainwright"}, "GRV": {"code": "GRV", "countryCode": "RU", "country": "Russian Federation", "geoloc": {"lat": "43.333333", "lng": "45.700000"}, "nearestCity": "Groznyj", "airportName": "Groznyj"}, "GRW": {"code": "GRW", "countryCode": "PT", "country": "Portugal", "geoloc": {"lat": "39.066667", "lng": "-28.000000"}, "nearestCity": "Graciosa Island", "airportName": "Graciosa Island"}, "GRT": {"code": "GRT", "countryCode": "PK", "country": "Pakistan", "geoloc": {"lat": "32.566667", "lng": "74.083333"}, "nearestCity": "Gujrat", "airportName": "Gujrat"}, "GRU": {"code": "GRU", "countryCode": "BR", "country": "Brazil", "geoloc": {"lat": "-23.431944", "lng": "-46.469444"}, "nearestCity": "Sao Paulo", "airportName": "Aeroporto Internacional Guarulhos"}, "GRR": {"code": "GRR", "countryCode": "US", "country": "United States", "geoloc": {"lat": "42.883333", "lng": "-85.533333"}, "nearestCity": "Grand Rapids", "airportName": "Kent County Intl"}, "GRS": {"code": "GRS", "countryCode": "IT", "country": "Italy", "geoloc": {"lat": "42.750000", "lng": "11.066667"}, "nearestCity": "Grosseto", "airportName": "Baccarini"}, "GRP": {"code": "GRP", "countryCode": "BR", "country": "Brazil", "geoloc": {"lat": "-11.666667", "lng": "-49.216667"}, "nearestCity": "Gurupi", "airportName": "Gurupi"}, "GRQ": {"code": "GRQ", "countryCode": "NL", "country": "Netherlands", "geoloc": {"lat": "53.119722", "lng": "6.579444"}, "nearestCity": "Groningen", "airportName": "Eelde"}, "GRZ": {"code": "GRZ", "countryCode": "AT", "country": "Austria", "geoloc": {"lat": "47.066667", "lng": "15.450000"}, "nearestCity": "Graz", "airportName": "Thalerhof"}, "GRX": {"code": "GRX", "countryCode": "ES", "country": "Spain", "geoloc": {"lat": "37.188611", "lng": "-3.777222"}, "nearestCity": "Granada", "airportName": "Granada"}, "GRY": {"code": "GRY", "countryCode": "IS", "country": "Iceland", "geoloc": {"lat": "66.566667", "lng": "-18.016667"}, "nearestCity": "Grimsey", "airportName": "Grimsey"}, "GRF": {"code": "GRF", "countryCode": "US", "country": "United States", "geoloc": {"lat": "35.339167", "lng": "-77.960556"}, "nearestCity": "Tacoma", "airportName": "Gray Aaf"}, "GRG": {"code": "GRG", "countryCode": "AF", "country": "Afghanistan", "geoloc": {"lat": "33.616667", "lng": "69.116667"}, "nearestCity": "Gardez", "airportName": "Gardez"}, "GRD": {"code": "GRD", "countryCode": "US", "country": "United States", "geoloc": {"lat": "34.250000", "lng": "-82.150000"}, "nearestCity": "Greenwood", "airportName": "Greenwood"}, "GRE": {"code": "GRE", "countryCode": "US", "country": "United States", "geoloc": {"lat": "38.883333", "lng": "-89.416667"}, "nearestCity": "Greenville", "airportName": "Municipal"}, "GRB": {"code": "GRB", "countryCode": "US", "country": "United States", "geoloc": {"lat": "44.483333", "lng": "-88.133333"}, "nearestCity": "Green Bay", "airportName": "Austin-straubel Field"}, "GRC": {"code": "GRC", "countryCode": "LR", "country": "Liberia", "geoloc": {"lat": "4.600000", "lng": "-8.166667"}, "nearestCity": "Grand Cess", "airportName": "Grand Cess"}, "GRA": {"code": "GRA", "countryCode": "CO", "country": "Colombia", "geoloc": {"lat": "8.200000", "lng": "-73.783333"}, "nearestCity": "Gamarra", "airportName": "Gamarra"}, "GRN": {"code": "GRN", "countryCode": "US", "country": "United States", "geoloc": {"lat": "42.800000", "lng": "-102.200000"}, "nearestCity": "Gordon", "airportName": "Gordon"}, "GRO": {"code": "GRO", "countryCode": "ES", "country": "Spain", "geoloc": {"lat": "41.900833", "lng": "2.760556"}, "nearestCity": "Gerona", "airportName": "Girona-Costa Brava"}, "GRL": {"code": "GRL", "countryCode": "PG", "country": "Papua New Guinea", "geoloc": {"lat": "-7.950000", "lng": "147.183333"}, "nearestCity": "Garasa", "airportName": "Garasa"}, "GRM": {"code": "GRM", "countryCode": "US", "country": "United States", "geoloc": {"lat": "47.750000", "lng": "-91.333333"}, "nearestCity": "Grand Marais", "airportName": "Devils Track"}, "GRJ": {"code": "GRJ", "countryCode": "ZA", "country": "South Africa", "geoloc": {"lat": "-33.966667", "lng": "22.416667"}, "nearestCity": "George", "airportName": "George"}, "GRK": {"code": "GRK", "countryCode": "US", "country": "United States", "geoloc": {"lat": "31.067222", "lng": "-97.828889"}, "nearestCity": "Fort Hood, TX", "airportName": "Gray Aaf"}, "GRH": {"code": "GRH", "countryCode": "PG", "country": "Papua New Guinea", "geoloc": {"lat": "-10.316667", "lng": "150.683333"}, "nearestCity": "Garuahi", "airportName": "Garuahi"}, "GRI": {"code": "GRI", "countryCode": "US", "country": "United States", "geoloc": {"lat": "40.967500", "lng": "-98.309722"}, "nearestCity": "Grand Island, NE", "airportName": "Grand Island"}, "TJA": {"code": "TJA", "countryCode": "BO", "country": "Bolivia", "geoloc": {"lat": "11.833333", "lng": "-13.733333"}, "nearestCity": "Tarija", "airportName": "Tarija"}, "NOM": {"code": "NOM", "countryCode": "PG", "country": "Papua New Guinea", "geoloc": {"lat": "-6.650000", "lng": "142.116667"}, "nearestCity": "Nomad River", "airportName": "Nomad River"}, "NON": {"code": "NON", "countryCode": "KI", "country": "Kiribati", "geoloc": {"lat": "-0.639722", "lng": "174.427778"}, "nearestCity": "Rotima", "airportName": "Nonouti"}, "TJB": {"code": "TJB", "countryCode": "ID", "country": "Indonesia", "geoloc": {"lat": "1.379722", "lng": "102.150556"}, "nearestCity": "Tanjung Balai", "airportName": "Tanjung Balai"}, "NOH": {"code": "NOH", "countryCode": "US", "country": "United States", "geoloc": {"lat": "17.800000", "lng": "-88.300000"}, "nearestCity": "Chicago", "airportName": "Chicago NAS"}, "HLZ": {"code": "HLZ", "countryCode": "NZ", "country": "New Zealand", "geoloc": {"lat": "-37.866667", "lng": "175.333333"}, "nearestCity": "Hamilton", "airportName": "Hamilton"}, "TJG": {"code": "TJG", "countryCode": "ID", "country": "Indonesia", "geoloc": {"lat": "-0.300000", "lng": "100.600000"}, "nearestCity": "Tanjung Warukin", "airportName": "Tanjung Warukin"}, "NOK": {"code": "NOK", "countryCode": "BR", "country": "Brazil", "geoloc": {"lat": "-27.083333", "lng": "-52.333333"}, "nearestCity": "Nova Xavantina", "airportName": "Nova Xavantina"}, "NOD": {"code": "NOD", "countryCode": "DE", "country": "Germany", "geoloc": {"lat": "53.600000", "lng": "7.200000"}, "nearestCity": "Norden", "airportName": "Norden"}, "HLV": {"code": "HLV", "countryCode": "AU", "country": "Australia", "geoloc": {"lat": "-15.683333", "lng": "145.200000"}, "nearestCity": "Helenvale", "airportName": "Helenvale"}, "HLU": {"code": "HLU", "countryCode": "NC", "country": "New Caledonia", "geoloc": {"lat": "-21.250000", "lng": "165.616667"}, "nearestCity": "Houailou", "airportName": "Houailou"}, "HLT": {"code": "HLT", "countryCode": "AU", "country": "Australia", "geoloc": {"lat": "-37.650000", "lng": "142.066667"}, "nearestCity": "Hamilton", "airportName": "Hamilton"}, "HLS": {"code": "HLS", "countryCode": "AU", "country": "Australia", "geoloc": {"lat": "-41.000000", "lng": "148.175000"}, "nearestCity": "St Helens", "airportName": "St Helens"}, "NOA": {"code": "NOA", "countryCode": "AU", "country": "Australia", "geoloc": {"lat": "-34.933333", "lng": "150.566667"}, "nearestCity": "Nowra", "airportName": "Nowra"}, "NOB": {"code": "NOB", "countryCode": "CR", "country": "Costa Rica", "geoloc": {"lat": "9.800000", "lng": "-85.533333"}, "nearestCity": "Nosara Beach", "airportName": "Nosara Beach"}, "TJN": {"code": "TJN", "countryCode": "PF", "country": "French Polynesia", "geoloc": {"lat": "-15.816667", "lng": "-1.200000"}, "nearestCity": "Takume", "airportName": "Takume"}, "TJQ": {"code": "TJQ", "countryCode": "ID", "country": "Indonesia", "geoloc": {"lat": "-2.966667", "lng": "111.683333"}, "nearestCity": "Tanjung Pandan", "airportName": "Bulutumbang"}, "HLN": {"code": "HLN", "countryCode": "US", "country": "United States", "geoloc": {"lat": "46.600000", "lng": "-111.983333"}, "nearestCity": "Helena", "airportName": "Helena"}, "TJS": {"code": "TJS", "countryCode": "ID", "country": "Indonesia", "geoloc": {"lat": "-0.300000", "lng": "100.600000"}, "nearestCity": "Tanjung Selor", "airportName": "Tanjung Selor"}, "HLL": {"code": "HLL", "countryCode": "AU", "country": "Australia", "geoloc": {"lat": "-17.000000", "lng": "128.008333"}, "nearestCity": "Hillside", "airportName": "Hillside"}, "NOZ": {"code": "NOZ", "countryCode": "RU", "country": "Russian Federation", "geoloc": {"lat": "53.750000", "lng": "87.100000"}, "nearestCity": "Novokuznetsk", "airportName": "Novokuznetsk"}, "HLH": {"code": "HLH", "countryCode": "CN", "country": "China", "geoloc": {"lat": "46.083333", "lng": "122.083333"}, "nearestCity": "Ulanhot", "airportName": "Ulanhot"}, "NOT": {"code": "NOT", "countryCode": "US", "country": "United States", "geoloc": {"lat": "38.100000", "lng": "-122.566667"}, "nearestCity": "Novato", "airportName": "Novato"}, "NOU": {"code": "NOU", "countryCode": "NC", "country": "New Caledonia", "geoloc": {"lat": "-22.266667", "lng": "166.450000"}, "nearestCity": "Noumea", "airportName": "Tontouta"}, "NOV": {"code": "NOV", "countryCode": "AO", "country": "Angola", "geoloc": {"lat": "-12.783333", "lng": "15.766667"}, "nearestCity": "Huambo", "airportName": "Huambo"}, "HLD": {"code": "HLD", "countryCode": "CN", "country": "China", "geoloc": {"lat": "49.200000", "lng": "119.700000"}, "nearestCity": "Hailar", "airportName": "Hailar"}, "HLC": {"code": "HLC", "countryCode": "US", "country": "United States", "geoloc": {"lat": "39.366667", "lng": "-99.850000"}, "nearestCity": "Hill City", "airportName": "Hill City"}, "HLB": {"code": "HLB", "countryCode": "US", "country": "United States", "geoloc": {"lat": "39.300000", "lng": "-85.216667"}, "nearestCity": "Batesville", "airportName": "Hillenbrand"}, "NOR": {"code": "NOR", "countryCode": "IS", "country": "Iceland", "geoloc": {"lat": "65.150000", "lng": "-13.700000"}, "nearestCity": "Nordfjordur", "airportName": "Nordfjordur"}, "NOS": {"code": "NOS", "countryCode": "MG", "country": "Madagascar", "geoloc": {"lat": "-13.311944", "lng": "48.314722"}, "nearestCity": "Nossi-Be", "airportName": "Fascene"}, "AIK": {"code": "AIK", "countryCode": "US", "country": "United States", "geoloc": {"lat": "33.650000", "lng": "-81.683333"}, "nearestCity": "Aiken", "airportName": "Municipal"}, "ENW": {"code": "ENW", "countryCode": "US", "country": "United States", "geoloc": {"lat": "42.583333", "lng": "-87.916667"}, "nearestCity": "Kenosha", "airportName": "Kenosha Regional Airport"}, "WSB": {"code": "WSB", "countryCode": "US", "country": "United States", "geoloc": {"lat": "55.550000", "lng": "-133.633333"}, "nearestCity": "Steamboat Bay", "airportName": "SPB"}, "FJR": {"code": "FJR", "countryCode": "AE", "country": "United Arab Emirates", "geoloc": {"lat": "25.112222", "lng": "56.323889"}, "nearestCity": "Al-fujairah", "airportName": "Fujairah Intl"}, "WSG": {"code": "WSG", "countryCode": "US", "country": "United States", "geoloc": {"lat": "40.166667", "lng": "-80.250000"}, "nearestCity": "Washington", "airportName": "County"}, "HYG": {"code": "HYG", "countryCode": "US", "country": "United States", "geoloc": {"lat": "55.200000", "lng": "-132.833333"}, "nearestCity": "Hydaburg", "airportName": "SPB"}, "MLI": {"code": "MLI", "countryCode": "US", "country": "United States", "geoloc": {"lat": "41.450000", "lng": "-90.516667"}, "nearestCity": "Moline", "airportName": "Quad-City"}, "WSM": {"code": "WSM", "countryCode": "US", "country": "United States", "geoloc": {"lat": "67.416667", "lng": "-150.116667"}, "nearestCity": "Wiseman", "airportName": "Wiseman"}, "PLV": {"code": "PLV", "countryCode": "UA", "country": "Ukraine", "geoloc": {"lat": "49.583333", "lng": "34.533333"}, "nearestCity": "Poltava", "airportName": "Poltava"}, "WSO": {"code": "WSO", "countryCode": "SR", "country": "Suriname", "geoloc": {"lat": "5.216667", "lng": "-57.183333"}, "nearestCity": "Washabo", "airportName": "Washabo"}, "LMX": {"code": "LMX", "countryCode": "CO", "country": "Colombia", "geoloc": {"lat": "3.050000", "lng": "-77.550000"}, "nearestCity": "Lopez De Micay", "airportName": "Lopez De Micay"}, "LMY": {"code": "LMY", "countryCode": "PG", "country": "Papua New Guinea", "geoloc": {"lat": "-6.850000", "lng": "141.416667"}, "nearestCity": "Lake Murray", "airportName": "Lake Murray"}, "RLO": {"code": "RLO", "countryCode": "AR", "country": "Argentina", "geoloc": {"lat": "-32.350000", "lng": "-65.033333"}, "nearestCity": "Merlo", "airportName": "Valle Del Conlara"}, "EDA": {"code": "EDA", "countryCode": "US", "country": "United States", "geoloc": {"lat": "55.950000", "lng": "-133.666667"}, "nearestCity": "Edna Bay", "airportName": "Edna Bay"}, "EDF": {"code": "EDF", "countryCode": "US", "country": "United States", "geoloc": {"lat": "61.251389", "lng": "-149.806389"}, "nearestCity": "Anchorage", "airportName": "Elmendorf Afb"}, "EDG": {"code": "EDG", "countryCode": "US", "country": "United States", "geoloc": {"lat": "49.783333", "lng": "-1.133333"}, "nearestCity": "Edgewood", "airportName": "Weide AAF"}, "EDD": {"code": "EDD", "countryCode": "AU", "country": "Australia", "geoloc": {"lat": "-25.250000", "lng": "133.200000"}, "nearestCity": "Erldunda", "airportName": "Erldunda"}, "EDE": {"code": "EDE", "countryCode": "US", "country": "United States", "geoloc": {"lat": "36.066667", "lng": "-76.650000"}, "nearestCity": "Edenton", "airportName": "Municipal"}, "LMP": {"code": "LMP", "countryCode": "IT", "country": "Italy", "geoloc": {"lat": "35.333333", "lng": "12.583333"}, "nearestCity": "Lampedusa", "airportName": "Lampedusa"}, "LMQ": {"code": "LMQ", "countryCode": "LY", "country": "Libya", "geoloc": {"lat": "30.500000", "lng": "19.166667"}, "nearestCity": "Marsa Brega", "airportName": "Marsa Brega"}, "RLG": {"code": "RLG", "countryCode": "DE", "country": "Germany", "geoloc": {"lat": "54.118333", "lng": "12.125278"}, "nearestCity": "Rostock-laage", "airportName": "Laage"}, "EDI": {"code": "EDI", "countryCode": "GB", "country": "Scotland, United Kingdom", "geoloc": {"lat": "55.950000", "lng": "-3.350000"}, "nearestCity": "Edinburgh", "airportName": "Turnhouse"}, "LMT": {"code": "LMT", "countryCode": "US", "country": "United States", "geoloc": {"lat": "42.166667", "lng": "-121.733333"}, "nearestCity": "Klamath Falls", "airportName": "Kingsley Field"}, "EDO": {"code": "EDO", "countryCode": "TR", "country": "Turkey", "geoloc": {"lat": "39.554722", "lng": "27.013889"}, "nearestCity": "Edremit/korfez", "airportName": "Edremit/korfez"}, "EDL": {"code": "EDL", "countryCode": "KE", "country": "Kenya", "geoloc": {"lat": "0.533333", "lng": "35.266667"}, "nearestCity": "Eldoret", "airportName": "Eldoret"}, "EDM": {"code": "EDM", "countryCode": "FR", "country": "France", "geoloc": {"lat": "46.700000", "lng": "-1.383333"}, "nearestCity": "La Roche", "airportName": "Les Ajoncs"}, "EDR": {"code": "EDR", "countryCode": "AU", "country": "Australia", "geoloc": {"lat": "-14.900000", "lng": "141.616667"}, "nearestCity": "Edward River", "airportName": "Edward River"}, "LMI": {"code": "LMI", "countryCode": "PG", "country": "Papua New Guinea", "geoloc": {"lat": "-3.483333", "lng": "142.033333"}, "nearestCity": "Lumi", "airportName": "Lumi"}, "EDQ": {"code": "EDQ", "countryCode": "HN", "country": "Honduras", "geoloc": {"lat": "14.133333", "lng": "-88.416667"}, "nearestCity": "Erandique", "airportName": "Erandique"}, "LML": {"code": "LML", "countryCode": "MH", "country": "Marshall Islands", "geoloc": {"lat": "8.916667", "lng": "166.250000"}, "nearestCity": "Lae Island", "airportName": "Lae Island"}, "LMM": {"code": "LMM", "countryCode": "MX", "country": "Mexico", "geoloc": {"lat": "25.685278", "lng": "-109.080833"}, "nearestCity": "Los Mochis", "airportName": "Federal"}, "LMN": {"code": "LMN", "countryCode": "MY", "country": "Malaysia", "geoloc": {"lat": "4.666667", "lng": "115.000000"}, "nearestCity": "Limbang", "airportName": "Limbang"}, "LMO": {"code": "LMO", "countryCode": "GB", "country": "United Kingdom", "geoloc": {"lat": "57.716667", "lng": "-3.266667"}, "nearestCity": "Lossiemouth", "airportName": "RAF Station"}, "RLU": {"code": "RLU", "countryCode": "US", "country": "United States", "geoloc": {"lat": "67.100000", "lng": "-156.933333"}, "nearestCity": "Bornite", "airportName": "Bornite Upper"}, "RLT": {"code": "RLT", "countryCode": "NE", "country": "Niger", "geoloc": {"lat": "18.783333", "lng": "7.366667"}, "nearestCity": "Arlit", "airportName": "Arlit"}, "LMB": {"code": "LMB", "countryCode": "MW", "country": "Malawi", "geoloc": {"lat": "-13.750000", "lng": "34.566667"}, "nearestCity": "Salima", "airportName": "Salima"}, "LMC": {"code": "LMC", "countryCode": "CO", "country": "Colombia", "geoloc": {"lat": "3.316667", "lng": "-73.900000"}, "nearestCity": "Lamacarena", "airportName": "Lamacarena"}, "LMD": {"code": "LMD", "countryCode": "AR", "country": "Argentina", "geoloc": {"lat": "-40.833333", "lng": "-68.133333"}, "nearestCity": "Los Menucos", "airportName": "Los Menucos"}, "RLP": {"code": "RLP", "countryCode": "AU", "country": "Australia", "geoloc": {"lat": "-18.433333", "lng": "144.466667"}, "nearestCity": "Rosella Plains", "airportName": "Rosella Plains"}, "LMG": {"code": "LMG", "countryCode": "PG", "country": "Papua New Guinea", "geoloc": {"lat": "-4.700000", "lng": "152.750000"}, "nearestCity": "Lamassa", "airportName": "Lamassa"}, "IXJ": {"code": "IXJ", "countryCode": "IN", "country": "India", "geoloc": {"lat": "32.683333", "lng": "74.833333"}, "nearestCity": "Jammu", "airportName": "Satwari"}, "DPU": {"code": "DPU", "countryCode": "PG", "country": "Papua New Guinea", "geoloc": {"lat": "-5.833333", "lng": "145.750000"}, "nearestCity": "Dumpu", "airportName": "Dumpu"}, "DPS": {"code": "DPS", "countryCode": "ID", "country": "Indonesia", "geoloc": {"lat": "-8.748056", "lng": "115.167222"}, "nearestCity": "Denpasar, Bali", "airportName": "Ngurah Rai International"}, "IXK": {"code": "IXK", "countryCode": "IN", "country": "India", "geoloc": {"lat": "21.316944", "lng": "70.270278"}, "nearestCity": "Keshod", "airportName": "Keshod"}, "SOF": {"code": "SOF", "countryCode": "BG", "country": "Bulgaria", "geoloc": {"lat": "42.700000", "lng": "23.400000"}, "nearestCity": "Sofia", "airportName": "Sofia"}, "DPG": {"code": "DPG", "countryCode": "US", "country": "United States", "geoloc": {"lat": "48.583333", "lng": "-81.016667"}, "nearestCity": "Dugway", "airportName": "Michael AAF"}, "DPE": {"code": "DPE", "countryCode": "FR", "country": "France", "geoloc": {"lat": "49.933333", "lng": "1.083333"}, "nearestCity": "Dieppe", "airportName": "Dieppe"}, "DPA": {"code": "DPA", "countryCode": "US", "country": "United States", "geoloc": {"lat": "41.914444", "lng": "-88.246389"}, "nearestCity": "Chicago", "airportName": "Dupage County"}, "DPO": {"code": "DPO", "countryCode": "AU", "country": "Australia", "geoloc": {"lat": "-41.166667", "lng": "146.416667"}, "nearestCity": "Devonport", "airportName": "Devonport"}, "DPL": {"code": "DPL", "countryCode": "PH", "country": "Philippines", "geoloc": {"lat": "8.600000", "lng": "123.350000"}, "nearestCity": "Dipolog", "airportName": "Dipolog"}, "DPK": {"code": "DPK", "countryCode": "US", "country": "United States", "geoloc": {"lat": "40.766667", "lng": "-73.333333"}, "nearestCity": "Deer Park", "airportName": "Deer Park"}, "IXM": {"code": "IXM", "countryCode": "IN", "country": "India", "geoloc": {"lat": "9.834444", "lng": "78.093333"}, "nearestCity": "Madurai", "airportName": "Madurai"}, "EOS": {"code": "EOS", "countryCode": "US", "country": "United States", "geoloc": {"lat": "36.866667", "lng": "-94.366667"}, "nearestCity": "Neosho", "airportName": "Neosho"}, "PNY": {"code": "PNY", "countryCode": "IN", "country": "India", "geoloc": {"lat": "11.968611", "lng": "79.810000"}, "nearestCity": "Pondicherry", "airportName": "Pondicherry"}, "CFO": {"code": "CFO", "countryCode": "BR", "country": "Brazil", "geoloc": {"lat": "-10.633333", "lng": "-51.566667"}, "nearestCity": "Confreza", "airportName": "Confreza"}, "MLS": {"code": "MLS", "countryCode": "US", "country": "United States", "geoloc": {"lat": "46.433333", "lng": "-105.883333"}, "nearestCity": "Miles City", "airportName": "Municipal"}, "PNZ": {"code": "PNZ", "countryCode": "BR", "country": "Brazil", "geoloc": {"lat": "-9.383333", "lng": "-40.500000"}, "nearestCity": "Petrolina", "airportName": "Internacional"}, "CFK": {"code": "CFK", "countryCode": "US", "country": "United States", "geoloc": {"lat": "60.149167", "lng": "-164.285556"}, "nearestCity": "Chefornak, AK", "airportName": "Chefornak"}, "CFH": {"code": "CFH", "countryCode": "AU", "country": "Australia", "geoloc": {"lat": "-26.516667", "lng": "139.450000"}, "nearestCity": "Clifton Hills", "airportName": "Clifton Hills"}, "CFI": {"code": "CFI", "countryCode": "AU", "country": "Australia", "geoloc": {"lat": "-17.150000", "lng": "131.350000"}, "nearestCity": "Camfield", "airportName": "Camfield"}, "CFF": {"code": "CFF", "countryCode": "AO", "country": "Angola", "geoloc": {"lat": "-8.766667", "lng": "18.000000"}, "nearestCity": "Cafunfo", "airportName": "Cafunfo"}, "CFG": {"code": "CFG", "countryCode": "CU", "country": "Cuba", "geoloc": {"lat": "22.166667", "lng": "-80.516667"}, "nearestCity": "Cienfuegos", "airportName": "Cienfuegos"}, "CFD": {"code": "CFD", "countryCode": "US", "country": "United States", "geoloc": {"lat": "18.433333", "lng": "-77.466667"}, "nearestCity": "Bryan", "airportName": "Coulter Field"}, "PNR": {"code": "PNR", "countryCode": "CG", "country": "Congo", "geoloc": {"lat": "-4.816111", "lng": "11.886667"}, "nearestCity": "Pointe Noire", "airportName": "Pointe Noire"}, "CFB": {"code": "CFB", "countryCode": "BR", "country": "Brazil", "geoloc": {"lat": "-22.883333", "lng": "-42.016667"}, "nearestCity": "Cabo Frio", "airportName": "Cabo Frio"}, "CFC": {"code": "CFC", "countryCode": "BR", "country": "Brazil", "geoloc": {"lat": "-26.783333", "lng": "-51.000000"}, "nearestCity": "Cacador", "airportName": "Cacador"}, "PNV": {"code": "PNV", "countryCode": "LT", "country": "Lithuania", "geoloc": {"lat": "55.733333", "lng": "24.350000"}, "nearestCity": "Panevezys", "airportName": "Panevezys"}, "PNI": {"code": "PNI", "countryCode": "FM", "country": "Micronesia", "geoloc": {"lat": "7.016667", "lng": "158.233333"}, "nearestCity": "Pohnpei", "airportName": "Pohnpei"}, "PNH": {"code": "PNH", "countryCode": "KH", "country": "Cambodia", "geoloc": {"lat": "11.550000", "lng": "104.850000"}, "nearestCity": "Phnom Penh", "airportName": "Phnom Penh International"}, "PNK": {"code": "PNK", "countryCode": "ID", "country": "Indonesia", "geoloc": {"lat": "-0.050000", "lng": "109.383333"}, "nearestCity": "Pontianak", "airportName": "Supadio"}, "PNJ": {"code": "PNJ", "countryCode": "CN", "country": "China", "geoloc": {"lat": "42.446389", "lng": "119.573611"}, "nearestCity": "Peng Lai", "airportName": "Peng Lai/Sha He Kou"}, "PNL": {"code": "PNL", "countryCode": "IT", "country": "Italy", "geoloc": {"lat": "36.816667", "lng": "11.966667"}, "nearestCity": "Pantelleria", "airportName": "Pantelleria"}, "PNO": {"code": "PNO", "countryCode": "MX", "country": "Mexico", "geoloc": {"lat": "16.350000", "lng": "-98.066667"}, "nearestCity": "Pinotepa Nacional", "airportName": "Pinotepa Nacional"}, "PNN": {"code": "PNN", "countryCode": "US", "country": "United States", "geoloc": {"lat": "45.202778", "lng": "-67.566667"}, "nearestCity": "Princeton", "airportName": "Princeton"}, "PNA": {"code": "PNA", "countryCode": "ES", "country": "Spain", "geoloc": {"lat": "42.766667", "lng": "-1.641667"}, "nearestCity": "Pamplona", "airportName": "Pamplona"}, "CFT": {"code": "CFT", "countryCode": "US", "country": "United States", "geoloc": {"lat": "32.950000", "lng": "-109.200000"}, "nearestCity": "Clifton", "airportName": "Morenci"}, "PNB": {"code": "PNB", "countryCode": "BR", "country": "Brazil", "geoloc": {"lat": "-10.716667", "lng": "-48.400000"}, "nearestCity": "Porto Nacional", "airportName": "Porto Nacional"}, "CFR": {"code": "CFR", "countryCode": "FR", "country": "France", "geoloc": {"lat": "49.183333", "lng": "-0.450000"}, "nearestCity": "Caen", "airportName": "Carpiquet"}, "CFS": {"code": "CFS", "countryCode": "AU", "country": "Australia", "geoloc": {"lat": "-30.320556", "lng": "153.116389"}, "nearestCity": "Coffs Harbour", "airportName": "Coffs Harbour"}, "CFP": {"code": "CFP", "countryCode": "AU", "country": "Australia", "geoloc": {"lat": "-18.783333", "lng": "144.350000"}, "nearestCity": "Carpentaria Downs", "airportName": "Carpentaria Downs"}, "CFQ": {"code": "CFQ", "countryCode": "CA", "country": "Canada", "geoloc": {"lat": "49.036944", "lng": "-116.498333"}, "nearestCity": "Creston", "airportName": "Creston Valley Airport"}, "MLP": {"code": "MLP", "countryCode": "PH", "country": "Philippines", "geoloc": {"lat": "7.633333", "lng": "124.066667"}, "nearestCity": "Malabang", "airportName": "Malabang"}, "JDY": {"code": "JDY", "countryCode": "US", "country": "United States", "geoloc": {"lat": "33.956389", "lng": "-118.120556"}, "nearestCity": "Downey", "airportName": "Heliport"}, "XPR": {"code": "XPR", "countryCode": "US", "country": "United States", "geoloc": {"lat": "43.016667", "lng": "-102.516667"}, "nearestCity": "Pine Ridge", "airportName": "Pine Ridge"}, "XPQ": {"code": "XPQ", "countryCode": "MY", "country": "Malaysia", "geoloc": {"lat": "3.000000", "lng": "101.400000"}, "nearestCity": "Port Klang", "airportName": "Ferry"}, "IXQ": {"code": "IXQ", "countryCode": "IN", "country": "India", "geoloc": {"lat": "24.133333", "lng": "91.816667"}, "nearestCity": "Kamalpur", "airportName": "Kamalpur"}, "XPU": {"code": "XPU", "countryCode": "US", "country": "United States", "geoloc": {"lat": "70.333333", "lng": "-149.333333"}, "nearestCity": "West Kuparuk", "airportName": "West Kuparuk"}, "MRX": {"code": "MRX", "countryCode": "IR", "country": "Iran", "geoloc": {"lat": "30.556111", "lng": "49.151944"}, "nearestCity": "Bandar Mahshahr", "airportName": "Mahshahr"}, "MRY": {"code": "MRY", "countryCode": "US", "country": "United States", "geoloc": {"lat": "36.583333", "lng": "-121.850000"}, "nearestCity": "Monterey", "airportName": "Monterey Peninsula"}, "MRZ": {"code": "MRZ", "countryCode": "AU", "country": "Australia", "geoloc": {"lat": "-29.500000", "lng": "149.833333"}, "nearestCity": "Moree", "airportName": "Moree"}, "MRT": {"code": "MRT", "countryCode": "AU", "country": "Australia", "geoloc": {"lat": "-14.816667", "lng": "133.700000"}, "nearestCity": "Moroak", "airportName": "Moroak"}, "MRU": {"code": "MRU", "countryCode": "MU", "country": "Mauritius", "geoloc": {"lat": "-20.430278", "lng": "57.683611"}, "nearestCity": "Plaisance", "airportName": "Sir Seewoosagur Ramgoolam Int"}, "MRV": {"code": "MRV", "countryCode": "RU", "country": "Russian Federation", "geoloc": {"lat": "44.225000", "lng": "43.081944"}, "nearestCity": "Mineralnye Vody", "airportName": "Mineralnye Vodyj"}, "MRW": {"code": "MRW", "countryCode": "DK", "country": "Denmark", "geoloc": {"lat": "54.685833", "lng": "11.435000"}, "nearestCity": "Maribo", "airportName": "Maribo"}, "MRP": {"code": "MRP", "countryCode": "AU", "country": "Australia", "geoloc": {"lat": "-27.033333", "lng": "133.116667"}, "nearestCity": "Marla", "airportName": "Marla"}, "MRQ": {"code": "MRQ", "countryCode": "PH", "country": "Philippines", "geoloc": {"lat": "13.350000", "lng": "121.816667"}, "nearestCity": "Marinduque", "airportName": "Marinduque"}, "MRR": {"code": "MRR", "countryCode": "EC", "country": "Ecuador", "geoloc": {"lat": "-4.383333", "lng": "-79.933333"}, "nearestCity": "Macara", "airportName": "Macara"}, "MRS": {"code": "MRS", "countryCode": "FR", "country": "France", "geoloc": {"lat": "43.436667", "lng": "5.215000"}, "nearestCity": "Marseille", "airportName": "Marseille Provence Airport"}, "MRL": {"code": "MRL", "countryCode": "AU", "country": "Australia", "geoloc": {"lat": "-20.066667", "lng": "145.583333"}, "nearestCity": "Miners Lake", "airportName": "Miners Lake"}, "MRM": {"code": "MRM", "countryCode": "PG", "country": "Papua New Guinea", "geoloc": {"lat": "-9.200000", "lng": "147.600000"}, "nearestCity": "Manare", "airportName": "Manare"}, "MRN": {"code": "MRN", "countryCode": "US", "country": "United States", "geoloc": {"lat": "35.750000", "lng": "-81.725000"}, "nearestCity": "Morganton", "airportName": "Lenoir"}, "MRO": {"code": "MRO", "countryCode": "NZ", "country": "New Zealand", "geoloc": {"lat": "-40.966667", "lng": "175.633333"}, "nearestCity": "Masterton", "airportName": "Masterton"}, "MRH": {"code": "MRH", "countryCode": "PG", "country": "Papua New Guinea", "geoloc": {"lat": "61.383333", "lng": "-1.216667"}, "nearestCity": "May River", "airportName": "May River"}, "MRI": {"code": "MRI", "countryCode": "US", "country": "United States", "geoloc": {"lat": "61.200000", "lng": "-149.833333"}, "nearestCity": "Anchorage", "airportName": "Merrill Field"}, "MRJ": {"code": "MRJ", "countryCode": "HN", "country": "Honduras", "geoloc": {"lat": "14.133333", "lng": "-88.033333"}, "nearestCity": "Marcala", "airportName": "Marcala"}, "MRK": {"code": "MRK", "countryCode": "US", "country": "United States", "geoloc": {"lat": "25.933333", "lng": "-81.716667"}, "nearestCity": "Marco Island", "airportName": "Marco Island"}, "MRD": {"code": "MRD", "countryCode": "VE", "country": "Venezuela", "geoloc": {"lat": "8.583333", "lng": "-71.166667"}, "nearestCity": "Merida", "airportName": "A Carnevalli"}, "MRE": {"code": "MRE", "countryCode": "KE", "country": "Kenya", "geoloc": {"lat": "-1.183333", "lng": "35.100000"}, "nearestCity": "Mara Lodges", "airportName": "Mara Lodges"}, "MRF": {"code": "MRF", "countryCode": "US", "country": "United States", "geoloc": {"lat": "30.233333", "lng": "-103.866667"}, "nearestCity": "Marfa", "airportName": "Municipal"}, "MRG": {"code": "MRG", "countryCode": "AU", "country": "Australia", "geoloc": {"lat": "-17.000000", "lng": "145.433333"}, "nearestCity": "Mareeba", "airportName": "Mareeba"}, "MRA": {"code": "MRA", "countryCode": "LY", "country": "Libya", "geoloc": {"lat": "32.333333", "lng": "15.066667"}, "nearestCity": "Misurata", "airportName": "Misurata"}, "MRB": {"code": "MRB", "countryCode": "US", "country": "United States", "geoloc": {"lat": "39.401667", "lng": "-77.984444"}, "nearestCity": "Martinsburg", "airportName": "Eastern Wv Regional Airport/Shepherd Field"}, "MRC": {"code": "MRC", "countryCode": "US", "country": "United States", "geoloc": {"lat": "-10.750000", "lng": "-67.866667"}, "nearestCity": "Columbia", "airportName": "Maury County"}, "APZ": {"code": "APZ", "countryCode": "AR", "country": "Argentina", "geoloc": {"lat": "-38.916667", "lng": "-70.083333"}, "nearestCity": "Zapala", "airportName": "Zapala"}, "APX": {"code": "APX", "countryCode": "BR", "country": "Brazil", "geoloc": {"lat": "-23.383333", "lng": "-51.950000"}, "nearestCity": "Arapongas", "airportName": "Arapongas"}, "APY": {"code": "APY", "countryCode": "BR", "country": "Brazil", "geoloc": {"lat": "-9.100000", "lng": "-45.966667"}, "nearestCity": "Alto Parnaiba", "airportName": "Alto Parnaiba"}, "APR": {"code": "APR", "countryCode": "PG", "country": "Papua New Guinea", "geoloc": {"lat": "-4.300000", "lng": "142.433333"}, "nearestCity": "April River", "airportName": "April River"}, "APS": {"code": "APS", "countryCode": "BR", "country": "Brazil", "geoloc": {"lat": "-16.362222", "lng": "-48.926944"}, "nearestCity": "Anapolis", "airportName": "Anapolis"}, "APP": {"code": "APP", "countryCode": "PG", "country": "Papua New Guinea", "geoloc": {"lat": "-8.983333", "lng": "148.133333"}, "nearestCity": "Asapa", "airportName": "Asapa"}, "APQ": {"code": "APQ", "countryCode": "BR", "country": "Brazil", "geoloc": {"lat": "-9.750000", "lng": "-36.650000"}, "nearestCity": "Arapiraca", "airportName": "Arapiraca"}, "APV": {"code": "APV", "countryCode": "US", "country": "United States", "geoloc": {"lat": "34.575278", "lng": "-117.186111"}, "nearestCity": "Apple Valley", "airportName": "Apple Valley"}, "APW": {"code": "APW", "countryCode": "WS", "country": "Samoa", "geoloc": {"lat": "-13.833333", "lng": "-172.000000"}, "nearestCity": "Apia", "airportName": "Faleolo"}, "APT": {"code": "APT", "countryCode": "US", "country": "United States", "geoloc": {"lat": "35.066667", "lng": "-85.633333"}, "nearestCity": "Jasper", "airportName": "Marion County"}, "APU": {"code": "APU", "countryCode": "BR", "country": "Brazil", "geoloc": {"lat": "-23.550000", "lng": "-51.483333"}, "nearestCity": "Apucarana", "airportName": "Apucarana"}, "APK": {"code": "APK", "countryCode": "PF", "country": "French Polynesia", "geoloc": {"lat": "-15.083333", "lng": "-145.333333"}, "nearestCity": "Apataki", "airportName": "Apataki"}, "APH": {"code": "APH", "countryCode": "US", "country": "United States", "geoloc": {"lat": "38.050000", "lng": "-77.350000"}, "nearestCity": "Bowling Green", "airportName": "Camp A P Hill"}, "API": {"code": "API", "countryCode": "CO", "country": "Colombia", "geoloc": {"lat": "4.068889", "lng": "-73.051944"}, "nearestCity": "Apiay", "airportName": "Apiay"}, "APN": {"code": "APN", "countryCode": "US", "country": "United States", "geoloc": {"lat": "45.083333", "lng": "-83.550000"}, "nearestCity": "Alpena", "airportName": "Alpena County Regional"}, "APO": {"code": "APO", "countryCode": "CO", "country": "Colombia", "geoloc": {"lat": "7.033333", "lng": "-77.200000"}, "nearestCity": "Apartado", "airportName": "Apartado"}, "APL": {"code": "APL", "countryCode": "MZ", "country": "Mozambique", "geoloc": {"lat": "-15.100000", "lng": "39.283333"}, "nearestCity": "Nampula", "airportName": "Nampula"}, "PQI": {"code": "PQI", "countryCode": "US", "country": "United States", "geoloc": {"lat": "46.683333", "lng": "-68.050000"}, "nearestCity": "Presque Isle", "airportName": "Municipal"}, "APB": {"code": "APB", "countryCode": "BO", "country": "Bolivia", "geoloc": {"lat": "-14.716667", "lng": "-68.500000"}, "nearestCity": "Apolo", "airportName": "Apolo"}, "APC": {"code": "APC", "countryCode": "US", "country": "United States", "geoloc": {"lat": "38.450000", "lng": "-122.216667"}, "nearestCity": "Napa", "airportName": "Napa County"}, "APA": {"code": "APA", "countryCode": "US", "country": "United States", "geoloc": {"lat": "39.566667", "lng": "-104.833333"}, "nearestCity": "Denver", "airportName": "Arapahoe Co"}, "APF": {"code": "APF", "countryCode": "US", "country": "United States", "geoloc": {"lat": "26.150000", "lng": "-81.766667"}, "nearestCity": "Naples", "airportName": "Naples"}, "APG": {"code": "APG", "countryCode": "US", "country": "United States", "geoloc": {"lat": "52.316667", "lng": "-1.283333"}, "nearestCity": "Aberdeen", "airportName": "Phillips AAF"}, "APE": {"code": "APE", "countryCode": "PE", "country": "Peru", "geoloc": {"lat": "-15.350000", "lng": "-75.166667"}, "nearestCity": "San Juan Aposento", "airportName": "San Juan Aposento"}, "JNB": {"code": "JNB", "countryCode": "ZA", "country": "South Africa", "geoloc": {"lat": "-26.139167", "lng": "28.246111"}, "nearestCity": "Johannesburg", "airportName": "Oliver Reginald Tambo International"}, "PQT": {"code": "PQT", "countryCode": "DK", "country": "Denmark", "geoloc": {"lat": "71.283333", "lng": "-51.750000"}, "nearestCity": "Qeqertaq", "airportName": "Heliport"}, "KXK": {"code": "KXK", "countryCode": "RU", "country": "Russian Federation", "geoloc": {"lat": "50.400000", "lng": "136.950000"}, "nearestCity": "Komsomolsk Na Amure", "airportName": "Komsomolsk Na Amure"}, "KXA": {"code": "KXA", "countryCode": "US", "country": "United States", "geoloc": {"lat": "55.500000", "lng": "-132.500000"}, "nearestCity": "Kasaan", "airportName": "Kasaan SPB"}, "KXE": {"code": "KXE", "countryCode": "ZA", "country": "South Africa", "geoloc": {"lat": "-26.966667", "lng": "26.650000"}, "nearestCity": "Klerksdorp", "airportName": "Klerksdorp"}, "KXF": {"code": "KXF", "countryCode": "FJ", "country": "Fiji", "geoloc": {"lat": "-17.316667", "lng": "179.383333"}, "nearestCity": "Koro Island", "airportName": "Koro Island"}, "KXR": {"code": "KXR", "countryCode": "PG", "country": "Papua New Guinea", "geoloc": {"lat": "-5.283333", "lng": "154.600000"}, "nearestCity": "Karoola", "airportName": "Karoola"}, "KXU": {"code": "KXU", "countryCode": "PF", "country": "French Polynesia", "geoloc": {"lat": "-16.433333", "lng": "-1.366667"}, "nearestCity": "Katiu", "airportName": "Katiu"}, "YAY": {"code": "YAY", "countryCode": "CA", "country": "Canada", "geoloc": {"lat": "51.366667", "lng": "-55.583333"}, "nearestCity": "St Anthony", "airportName": "St Anthony"}, "YAX": {"code": "YAX", "countryCode": "CA", "country": "Canada", "geoloc": {"lat": "53.251944", "lng": "-89.565000"}, "nearestCity": "Angling Lake", "airportName": "Angling Lake"}, "YAZ": {"code": "YAZ", "countryCode": "CA", "country": "Canada", "geoloc": {"lat": "49.082222", "lng": "-125.772500"}, "nearestCity": "Tofino, BC", "airportName": "Tofino Airport"}, "YAU": {"code": "YAU", "countryCode": "CA", "country": "Canada", "geoloc": {"lat": "61.662778", "lng": "-73.321389"}, "nearestCity": "Kattiniq", "airportName": "Kattiniq/Donaldson"}, "YAT": {"code": "YAT", "countryCode": "CA", "country": "Canada", "geoloc": {"lat": "52.927778", "lng": "-82.431389"}, "nearestCity": "Attawapiskat", "airportName": "Attawapiskat"}, "YAW": {"code": "YAW", "countryCode": "CA", "country": "Canada", "geoloc": {"lat": "44.639722", "lng": "-63.499444"}, "nearestCity": "Halifax", "airportName": "Shearwater"}, "YAV": {"code": "YAV", "countryCode": "CA", "country": "Canada", "geoloc": {"lat": "66.500000", "lng": "-1.400000"}, "nearestCity": "Miners Bay", "airportName": "Miners Bay"}, "YAQ": {"code": "YAQ", "countryCode": "CA", "country": "Canada", "geoloc": {"lat": "48.816667", "lng": "-1.600000"}, "nearestCity": "Maple Bay", "airportName": "Maple Bay"}, "YAP": {"code": "YAP", "countryCode": "FM", "country": "Federated States of Micronesia", "geoloc": {"lat": "9.516667", "lng": "138.100000"}, "nearestCity": "Yap, Caroline Islands", "airportName": "Yap International"}, "YAS": {"code": "YAS", "countryCode": "FJ", "country": "Fiji", "geoloc": {"lat": "-16.783333", "lng": "177.516667"}, "nearestCity": "Yasawa Island", "airportName": "Yasawa Island"}, "YAR": {"code": "YAR", "countryCode": "CA", "country": "Canada", "geoloc": {"lat": "53.550000", "lng": "-76.200000"}, "nearestCity": "Lagrande 3", "airportName": "Lagrande 3"}, "YAM": {"code": "YAM", "countryCode": "CA", "country": "Canada", "geoloc": {"lat": "46.483333", "lng": "-84.500000"}, "nearestCity": "Sault Ste Marie", "airportName": "Sault Ste Marie"}, "YAL": {"code": "YAL", "countryCode": "CA", "country": "Canada", "geoloc": {"lat": "50.583333", "lng": "-126.933333"}, "nearestCity": "Alert Bay", "airportName": "Alert Bay"}, "YAO": {"code": "YAO", "countryCode": "CM", "country": "Cameroon", "geoloc": {"lat": "3.833611", "lng": "11.523611"}, "nearestCity": "Yaounde", "airportName": "Yaounde Airport"}, "YAN": {"code": "YAN", "countryCode": "ZR", "country": "Zaire", "geoloc": {"lat": "0.800000", "lng": "24.450000"}, "nearestCity": "Yangambi", "airportName": "Yangambi"}, "YAI": {"code": "YAI", "countryCode": "CL", "country": "Chile", "geoloc": {"lat": "-36.566667", "lng": "-72.033333"}, "nearestCity": "Chillan", "airportName": "Chillan"}, "YAH": {"code": "YAH", "countryCode": "CA", "country": "Canada", "geoloc": {"lat": "53.750000", "lng": "-73.650000"}, "nearestCity": "Lagrande 4", "airportName": "Lagrande 4"}, "YAK": {"code": "YAK", "countryCode": "US", "country": "United States", "geoloc": {"lat": "59.500000", "lng": "-139.666667"}, "nearestCity": "Yakutat", "airportName": "Yakutat"}, "YAJ": {"code": "YAJ", "countryCode": "CA", "country": "Canada", "geoloc": {"lat": "48.800000", "lng": "-1.200000"}, "nearestCity": "Lyall Harbour", "airportName": "Lyall Harbour"}, "YAE": {"code": "YAE", "countryCode": "CA", "country": "Canada", "geoloc": {"lat": "50.116667", "lng": "-1.983333"}, "nearestCity": "Alta Lake", "airportName": "Alta Lake"}, "YAG": {"code": "YAG", "countryCode": "CA", "country": "Canada", "geoloc": {"lat": "48.600000", "lng": "-93.400000"}, "nearestCity": "Fort Frances", "airportName": "Municipal"}, "YAF": {"code": "YAF", "countryCode": "CA", "country": "Canada", "geoloc": {"lat": "45.766667", "lng": "-71.950000"}, "nearestCity": "Asbestos Hill", "airportName": "Asbestos Hill"}, "YAA": {"code": "YAA", "countryCode": "CA", "country": "Canada", "geoloc": {"lat": "52.466667", "lng": "-125.300000"}, "nearestCity": "Anahim Lake", "airportName": "Anahim Lake"}, "YAC": {"code": "YAC", "countryCode": "CA", "country": "Canada", "geoloc": {"lat": "51.666667", "lng": "-91.833333"}, "nearestCity": "Cat Lake", "airportName": "Cat Lake"}, "YAB": {"code": "YAB", "countryCode": "CA", "country": "Canada", "geoloc": {"lat": "73.037778", "lng": "-85.152500"}, "nearestCity": "Arctic Bay", "airportName": "Arctic Bay"}, "MDS": {"code": "MDS", "countryCode": "TC", "country": "Turks and Caicos Islands", "geoloc": {"lat": "21.783333", "lng": "-71.766667"}, "nearestCity": "Middle Caicos", "airportName": "Middle Caicos"}, "CLL": {"code": "CLL", "countryCode": "US", "country": "United States", "geoloc": {"lat": "30.588611", "lng": "-96.363889"}, "nearestCity": "College Station, TX", "airportName": "Easterwood Field"}, "CLO": {"code": "CLO", "countryCode": "CO", "country": "Colombia", "geoloc": {"lat": "3.457500", "lng": "-76.496389"}, "nearestCity": "Cali", "airportName": "Alfonso B. Aragon"}, "CLI": {"code": "CLI", "countryCode": "US", "country": "United States", "geoloc": {"lat": "43.600000", "lng": "-81.533333"}, "nearestCity": "Clintonville", "airportName": "Clintonville"}, "CLJ": {"code": "CLJ", "countryCode": "RO", "country": "Romania", "geoloc": {"lat": "46.785278", "lng": "23.686111"}, "nearestCity": "Cluj-Napoca", "airportName": "Cluj Napoca International Airport"}, "CLK": {"code": "CLK", "countryCode": "US", "country": "United States", "geoloc": {"lat": "43.600000", "lng": "-81.533333"}, "nearestCity": "Clinton", "airportName": "Municipal"}, "CLD": {"code": "CLD", "countryCode": "US", "country": "United States", "geoloc": {"lat": "33.116667", "lng": "-117.266667"}, "nearestCity": "Carlsbad, CA", "airportName": "Mc Clellan-Palomar Airport"}, "CLE": {"code": "CLE", "countryCode": "US", "country": "United States", "geoloc": {"lat": "41.416667", "lng": "-81.850000"}, "nearestCity": "Cleveland", "airportName": "Hopkins International"}, "MDQ": {"code": "MDQ", "countryCode": "AR", "country": "Argentina", "geoloc": {"lat": "-37.934167", "lng": "-57.573333"}, "nearestCity": "Mar Del Plata", "airportName": "Mar Del Plata"}, "PDU": {"code": "PDU", "countryCode": "UY", "country": "Uruguay", "geoloc": {"lat": "-32.366667", "lng": "-58.050000"}, "nearestCity": "Paysandu", "airportName": "Paysandu"}, "VCA": {"code": "VCA", "countryCode": "VN", "country": "Viet Nam", "geoloc": {"lat": "10.085000", "lng": "105.711944"}, "nearestCity": "Can Tho", "airportName": "Can Tho"}, "VCB": {"code": "VCB", "countryCode": "US", "country": "United States", "geoloc": {"lat": "55.080556", "lng": "-133.016667"}, "nearestCity": "View Cove", "airportName": "View Cove"}, "VCC": {"code": "VCC", "countryCode": "CM", "country": "Cameroon", "geoloc": {"lat": "4.016667", "lng": "9.200000"}, "nearestCity": "Limbe", "airportName": "Limbe"}, "VCD": {"code": "VCD", "countryCode": "AU", "country": "Australia", "geoloc": {"lat": "-16.405000", "lng": "131.003333"}, "nearestCity": "Victoria River Downs", "airportName": "Victoria River Downs"}, "VCE": {"code": "VCE", "countryCode": "IT", "country": "Italy", "geoloc": {"lat": "45.505278", "lng": "12.351944"}, "nearestCity": "Venice", "airportName": "Marco Polo"}, "VCF": {"code": "VCF", "countryCode": "AR", "country": "Argentina", "geoloc": {"lat": "-40.700000", "lng": "-66.150000"}, "nearestCity": "Valcheta", "airportName": "Valcheta"}, "VCH": {"code": "VCH", "countryCode": "UY", "country": "Uruguay", "geoloc": {"lat": "-31.766667", "lng": "-54.616667"}, "nearestCity": "Vichadero", "airportName": "Vichadero"}, "IMM": {"code": "IMM", "countryCode": "US", "country": "United States", "geoloc": {"lat": "26.416667", "lng": "-81.416667"}, "nearestCity": "Immokalee", "airportName": "Immokalee"}, "VCL": {"code": "VCL", "countryCode": "VN", "country": "Viet Nam", "geoloc": {"lat": "15.405833", "lng": "108.700000"}, "nearestCity": "Tamky", "airportName": "Chulai"}, "IML": {"code": "IML", "countryCode": "US", "country": "United States", "geoloc": {"lat": "40.516667", "lng": "-101.616667"}, "nearestCity": "Imperial", "airportName": "Imperial"}, "VCP": {"code": "VCP", "countryCode": "BR", "country": "Brazil", "geoloc": {"lat": "-23.007500", "lng": "-47.134444"}, "nearestCity": "Campinas, Sao Paulo", "airportName": "Viracopos"}, "VCR": {"code": "VCR", "countryCode": "VE", "country": "Venezuela", "geoloc": {"lat": "10.175556", "lng": "-70.065278"}, "nearestCity": "Carora", "airportName": "Carora"}, "VCS": {"code": "VCS", "countryCode": "VN", "country": "Viet Nam", "geoloc": {"lat": "8.666667", "lng": "106.633333"}, "nearestCity": "Con Dao", "airportName": "Coong"}, "VCT": {"code": "VCT", "countryCode": "US", "country": "United States", "geoloc": {"lat": "28.850000", "lng": "-96.916667"}, "nearestCity": "Victoria", "airportName": "County-Foster"}, "IMO": {"code": "IMO", "countryCode": "CF", "country": "Central African Republic", "geoloc": {"lat": "5.033333", "lng": "25.133333"}, "nearestCity": "Zemio", "airportName": "Zemio"}, "VCV": {"code": "VCV", "countryCode": "US", "country": "United States", "geoloc": {"lat": "34.597500", "lng": "-117.383056"}, "nearestCity": "Victorville, CA", "airportName": "Southern California Logistics"}, "CLC": {"code": "CLC", "countryCode": "US", "country": "United States", "geoloc": {"lat": "29.557500", "lng": "-95.139167"}, "nearestCity": "Clearlake", "airportName": "Metroport"}, "WKI": {"code": "WKI", "countryCode": "ZW", "country": "Zimbabwe", "geoloc": {"lat": "-18.366667", "lng": "26.483333"}, "nearestCity": "Hwange", "airportName": "Hwange"}, "WKK": {"code": "WKK", "countryCode": "US", "country": "United States", "geoloc": {"lat": "59.266667", "lng": "-158.633333"}, "nearestCity": "Aleknagik", "airportName": "Aleknagik"}, "WKJ": {"code": "WKJ", "countryCode": "JP", "country": "Japan", "geoloc": {"lat": "45.400000", "lng": "141.816667"}, "nearestCity": "Wakkanai", "airportName": "Hokkaido"}, "WKL": {"code": "WKL", "countryCode": "US", "country": "United States", "geoloc": {"lat": "19.916667", "lng": "-155.866667"}, "nearestCity": "Waikoloa", "airportName": "Waikoloa Airport"}, "WKN": {"code": "WKN", "countryCode": "PG", "country": "Papua New Guinea", "geoloc": {"lat": "-5.866667", "lng": "155.233333"}, "nearestCity": "Wakunai", "airportName": "Wakunai"}, "WKA": {"code": "WKA", "countryCode": "NZ", "country": "New Zealand", "geoloc": {"lat": "-44.733333", "lng": "169.250000"}, "nearestCity": "Wanaka", "airportName": "Wanaka"}, "WKB": {"code": "WKB", "countryCode": "AU", "country": "Australia", "geoloc": {"lat": "-36.333333", "lng": "142.250000"}, "nearestCity": "Warracknabeal", "airportName": "Warracknabeal"}, "WKF": {"code": "WKF", "countryCode": "ZA", "country": "South Africa", "geoloc": {"lat": "-25.830000", "lng": "28.222500"}, "nearestCity": "Waterkloof", "airportName": "Waterkloof AFB"}, "PDK": {"code": "PDK", "countryCode": "US", "country": "United States", "geoloc": {"lat": "33.875556", "lng": "-84.301944"}, "nearestCity": "Atlanta, GA", "airportName": "Dekalb-Peachtree"}, "IMT": {"code": "IMT", "countryCode": "US", "country": "United States", "geoloc": {"lat": "45.816667", "lng": "-88.116667"}, "nearestCity": "Iron Mountain", "airportName": "Ford"}, "CLZ": {"code": "CLZ", "countryCode": "VE", "country": "Venezuela", "geoloc": {"lat": "8.933333", "lng": "-67.433333"}, "nearestCity": "Calabozo", "airportName": "Calabozo"}, "CLT": {"code": "CLT", "countryCode": "US", "country": "United States", "geoloc": {"lat": "35.216667", "lng": "-80.933333"}, "nearestCity": "Charlotte", "airportName": "Charlotte Douglas"}, "CLU": {"code": "CLU", "countryCode": "US", "country": "United States", "geoloc": {"lat": "39.133333", "lng": "-85.933333"}, "nearestCity": "Columbus", "airportName": "Columbus Municipal"}, "PDE": {"code": "PDE", "countryCode": "AU", "country": "Australia", "geoloc": {"lat": "-26.133333", "lng": "139.383333"}, "nearestCity": "Pandie Pandie", "airportName": "Pandie Pandie"}, "PDD": {"code": "PDD", "countryCode": "MZ", "country": "Mozambique", "geoloc": {"lat": "-26.183333", "lng": "36.966667"}, "nearestCity": "Ponta de Ouro", "airportName": "Ponta de Ouro"}, "CLP": {"code": "CLP", "countryCode": "US", "country": "United States", "geoloc": {"lat": "58.850000", "lng": "-158.500000"}, "nearestCity": "Clarks Point", "airportName": "Clarks Point"}, "PDB": {"code": "PDB", "countryCode": "US", "country": "United States", "geoloc": {"lat": "59.783333", "lng": "-154.116667"}, "nearestCity": "Pedro Bay", "airportName": "Pedro Bay"}, "CLR": {"code": "CLR", "countryCode": "US", "country": "United States", "geoloc": {"lat": "33.133333", "lng": "-115.516667"}, "nearestCity": "Calipatria", "airportName": "Calipatria"}, "PLM": {"code": "PLM", "countryCode": "ID", "country": "Indonesia", "geoloc": {"lat": "-2.900000", "lng": "104.700000"}, "nearestCity": "Palembang", "airportName": "Mahmud Badaruddin Ii"}, "ZXP": {"code": "ZXP", "countryCode": "GB", "country": "United Kingdom", "geoloc": {"lat": "56.400000", "lng": "-3.433333"}, "nearestCity": "Perth", "airportName": "ScotRail"}, "ZXS": {"code": "ZXS", "countryCode": "US", "country": "United States", "geoloc": {"lat": "42.878333", "lng": "-78.875278"}, "nearestCity": "Buffalo", "airportName": "Exchangest Railway Svc"}, "ZXT": {"code": "ZXT", "countryCode": "AZ", "country": "Azerbaijan", "geoloc": {"lat": "40.450000", "lng": "50.066667"}, "nearestCity": "Baku", "airportName": "Heydar Aliyev"}, "DMB": {"code": "DMB", "countryCode": "KZ", "country": "Kazakhstan", "geoloc": {"lat": "42.900000", "lng": "71.366667"}, "nearestCity": "Zhambyl", "airportName": "Zhambyl"}, "DMD": {"code": "DMD", "countryCode": "AU", "country": "Australia", "geoloc": {"lat": "-18.000000", "lng": "138.833333"}, "nearestCity": "Doomadgee", "airportName": "Doomadgee"}, "DME": {"code": "DME", "countryCode": "RU", "country": "Russian Federation", "geoloc": {"lat": "55.419444", "lng": "37.885833"}, "nearestCity": "Moscow", "airportName": "Domodedovo"}, "DMK": {"code": "DMK", "countryCode": "TH", "country": "Thailand", "geoloc": {"lat": "13.912500", "lng": "100.606667"}, "nearestCity": "Bangkok", "airportName": "Don Muang"}, "DMM": {"code": "DMM", "countryCode": "SA", "country": "Saudi Arabia", "geoloc": {"lat": "26.471111", "lng": "49.797778"}, "nearestCity": "Dammam", "airportName": "King Fahd International Airport"}, "DMN": {"code": "DMN", "countryCode": "US", "country": "United States", "geoloc": {"lat": "26.951667", "lng": "108.578889"}, "nearestCity": "Deming", "airportName": "Deming"}, "DMO": {"code": "DMO", "countryCode": "US", "country": "United States", "geoloc": {"lat": "38.833333", "lng": "-93.416667"}, "nearestCity": "Sedalia", "airportName": "Sedalia"}, "DMR": {"code": "DMR", "countryCode": "YE", "country": "Yemen", "geoloc": {"lat": "14.533333", "lng": "44.433333"}, "nearestCity": "Dhamar", "airportName": "Dhamar"}, "DMT": {"code": "DMT", "countryCode": "BR", "country": "Brazil", "geoloc": {"lat": "-14.416667", "lng": "-56.450000"}, "nearestCity": "Diamantino", "airportName": "Diamantino"}, "DMU": {"code": "DMU", "countryCode": "IN", "country": "India", "geoloc": {"lat": "25.900000", "lng": "93.733333"}, "nearestCity": "Dimapur", "airportName": "Dimapur"}, "AKP": {"code": "AKP", "countryCode": "US", "country": "United States", "geoloc": {"lat": "68.133333", "lng": "-151.733333"}, "nearestCity": "Anaktuvuk", "airportName": "Anaktuvuk"}, "XRH": {"code": "XRH", "countryCode": "AU", "country": "Australia", "geoloc": {"lat": "48.166667", "lng": "-65.833333"}, "nearestCity": "Richmond", "airportName": "Richmond AFB"}, "XRJ": {"code": "XRJ", "countryCode": "IT", "country": "Italy", "geoloc": {"lat": "41.966667", "lng": "12.666667"}, "nearestCity": "Rome", "airportName": "Termini Rail Stn."}, "XRF": {"code": "XRF", "countryCode": "FR", "country": "France", "geoloc": {"lat": "47.066667", "lng": "3.000000"}, "nearestCity": "Marseille", "airportName": "Marseille Railway"}, "XRY": {"code": "XRY", "countryCode": "ES", "country": "Spain", "geoloc": {"lat": "36.744722", "lng": "-6.060000"}, "nearestCity": "Jerez De La Frontera", "airportName": "Jerez De La Frontera"}, "XRR": {"code": "XRR", "countryCode": "CA", "country": "Canada", "geoloc": {"lat": "61.983333", "lng": "-132.450000"}, "nearestCity": "Ross River", "airportName": "Ross River"}, "PSJ": {"code": "PSJ", "countryCode": "ID", "country": "Indonesia", "geoloc": {"lat": "-1.383333", "lng": "120.733333"}, "nearestCity": "Poso", "airportName": "Poso"}, "PSK": {"code": "PSK", "countryCode": "US", "country": "United States", "geoloc": {"lat": "37.116667", "lng": "-80.683333"}, "nearestCity": "Dublin", "airportName": "New River Valley"}, "PSH": {"code": "PSH", "countryCode": "DE", "country": "Germany", "geoloc": {"lat": "54.316667", "lng": "8.683333"}, "nearestCity": "St Peter", "airportName": "St Peter"}, "PSI": {"code": "PSI", "countryCode": "PK", "country": "Pakistan", "geoloc": {"lat": "25.300000", "lng": "63.366667"}, "nearestCity": "Pasni", "airportName": "Pasni"}, "PSN": {"code": "PSN", "countryCode": "US", "country": "United States", "geoloc": {"lat": "31.779722", "lng": "-95.706389"}, "nearestCity": "Palestine, TX", "airportName": "Palestine Municipal Airport"}, "PSO": {"code": "PSO", "countryCode": "CO", "country": "Colombia", "geoloc": {"lat": "1.466667", "lng": "-77.250000"}, "nearestCity": "Pasto", "airportName": "Cano"}, "PSL": {"code": "PSL", "countryCode": "GB", "country": "United Kingdom", "geoloc": {"lat": "56.400000", "lng": "-3.466667"}, "nearestCity": "Perth", "airportName": "Perth"}, "JLR": {"code": "JLR", "countryCode": "IN", "country": "India", "geoloc": {"lat": "23.183333", "lng": "80.083333"}, "nearestCity": "Jabalpur", "airportName": "Jabalpur"}, "PSB": {"code": "PSB", "countryCode": "US", "country": "United States", "geoloc": {"lat": "60.933333", "lng": "7.200000"}, "nearestCity": "Bellefonte", "airportName": "Bellefonte"}, "PSC": {"code": "PSC", "countryCode": "US", "country": "United States", "geoloc": {"lat": "46.264722", "lng": "-119.119167"}, "nearestCity": "Pasco, WA", "airportName": "Tri-cities"}, "PSA": {"code": "PSA", "countryCode": "IT", "country": "Italy", "geoloc": {"lat": "43.683333", "lng": "10.400000"}, "nearestCity": "Pisa", "airportName": "Galileo Galilei"}, "PSF": {"code": "PSF", "countryCode": "US", "country": "United States", "geoloc": {"lat": "42.433333", "lng": "-73.300000"}, "nearestCity": "Pittsfield", "airportName": "Pittsfield"}, "PSG": {"code": "PSG", "countryCode": "US", "country": "United States", "geoloc": {"lat": "56.800000", "lng": "-132.983333"}, "nearestCity": "Petersburg, AK", "airportName": "Petersburg James A Johnson"}, "PSD": {"code": "PSD", "countryCode": "EG", "country": "Egypt", "geoloc": {"lat": "31.283333", "lng": "32.233333"}, "nearestCity": "Port Said", "airportName": "Port Said"}, "PSE": {"code": "PSE", "countryCode": "PR", "country": "Puerto Rico", "geoloc": {"lat": "17.983333", "lng": "-66.400000"}, "nearestCity": "Ponce", "airportName": "Mercedita"}, "PSZ": {"code": "PSZ", "countryCode": "BO", "country": "Bolivia", "geoloc": {"lat": "-18.966667", "lng": "-57.866667"}, "nearestCity": "Puerto Suarez", "airportName": "Puerto Suarez"}, "JLD": {"code": "JLD", "countryCode": "SE", "country": "Sweden", "geoloc": {"lat": "56.305556", "lng": "12.850000"}, "nearestCity": "Landskrona", "airportName": "Heliport"}, "PSX": {"code": "PSX", "countryCode": "US", "country": "United States", "geoloc": {"lat": "28.700000", "lng": "-96.216667"}, "nearestCity": "Palacios", "airportName": "Palacios"}, "PSY": {"code": "PSY", "countryCode": "FK", "country": "Falkland Islands", "geoloc": {"lat": "-51.750000", "lng": "-59.000000"}, "nearestCity": "Port Stanley", "airportName": "Port Stanley"}, "JLA": {"code": "JLA", "countryCode": "US", "country": "United States", "geoloc": {"lat": "60.483333", "lng": "-149.850000"}, "nearestCity": "Cooper Lodge", "airportName": "Quartz Creek"}, "JLB": {"code": "JLB", "countryCode": "US", "country": "United States", "geoloc": {"lat": "-53.200000", "lng": "73.483333"}, "nearestCity": "Long Beach", "airportName": "Heliport"}, "PSR": {"code": "PSR", "countryCode": "IT", "country": "Italy", "geoloc": {"lat": "42.466667", "lng": "14.216667"}, "nearestCity": "Pescara", "airportName": "Liberi"}, "PSS": {"code": "PSS", "countryCode": "AR", "country": "Argentina", "geoloc": {"lat": "-27.416667", "lng": "-55.950000"}, "nearestCity": "Posadas", "airportName": "Posadas"}, "JLO": {"code": "JLO", "countryCode": "IT", "country": "Italy", "geoloc": {"lat": "45.500000", "lng": "12.600000"}, "nearestCity": "Jesolo", "airportName": "Jesolo"}, "JLN": {"code": "JLN", "countryCode": "US", "country": "United States", "geoloc": {"lat": "37.151944", "lng": "-94.498333"}, "nearestCity": "Joplin, MO", "airportName": "Joplin Regional"}, "PSW": {"code": "PSW", "countryCode": "BR", "country": "Brazil", "geoloc": {"lat": "-20.716667", "lng": "-46.616667"}, "nearestCity": "Passos", "airportName": "Passos"}, "PST": {"code": "PST", "countryCode": "CU", "country": "Cuba", "geoloc": {"lat": "20.750000", "lng": "-75.650000"}, "nearestCity": "Preston", "airportName": "Preston"}, "PSU": {"code": "PSU", "countryCode": "ID", "country": "Indonesia", "geoloc": {"lat": "0.833333", "lng": "112.933333"}, "nearestCity": "Putussibau", "airportName": "Putussibau"}, "HNA": {"code": "HNA", "countryCode": "JP", "country": "Japan", "geoloc": {"lat": "39.733333", "lng": "141.116667"}, "nearestCity": "Hanamaki", "airportName": "Hanamaki"}, "BCM": {"code": "BCM", "countryCode": "RO", "country": "Romania", "geoloc": {"lat": "46.600000", "lng": "26.883333"}, "nearestCity": "Bacau", "airportName": "Bacau"}, "BCN": {"code": "BCN", "countryCode": "ES", "country": "Spain", "geoloc": {"lat": "41.300000", "lng": "2.083333"}, "nearestCity": "Barcelona", "airportName": "El Prat De Llobregat"}, "BCO": {"code": "BCO", "countryCode": "ET", "country": "Ethiopia", "geoloc": {"lat": "5.783333", "lng": "36.550000"}, "nearestCity": "Jinka", "airportName": "Jinka"}, "BCH": {"code": "BCH", "countryCode": "TP", "country": "East Timor-Indonesia", "geoloc": {"lat": "-8.485556", "lng": "126.399444"}, "nearestCity": "Baucau", "airportName": "Cakung International"}, "BCI": {"code": "BCI", "countryCode": "AU", "country": "Australia", "geoloc": {"lat": "-23.666667", "lng": "145.333333"}, "nearestCity": "Barcaldine", "airportName": "Barcaldine"}, "HNG": {"code": "HNG", "countryCode": "NC", "country": "New Caledonia", "geoloc": {"lat": "-20.683333", "lng": "164.933333"}, "nearestCity": "Hienghene", "airportName": "Hienghene"}, "BCK": {"code": "BCK", "countryCode": "AU", "country": "Australia", "geoloc": {"lat": "-17.400000", "lng": "144.166667"}, "nearestCity": "Bolwarra", "airportName": "Bolwarra"}, "HNI": {"code": "HNI", "countryCode": "PG", "country": "Papua New Guinea", "geoloc": {"lat": "-7.400000", "lng": "146.466667"}, "nearestCity": "Heiweni", "airportName": "Heiweni"}, "BCE": {"code": "BCE", "countryCode": "US", "country": "United States", "geoloc": {"lat": "37.700000", "lng": "-112.150000"}, "nearestCity": "Bryce", "airportName": "Bryce"}, "HNK": {"code": "HNK", "countryCode": "AU", "country": "Australia", "geoloc": {"lat": "-18.383333", "lng": "146.283333"}, "nearestCity": "Hinchinbrook Island", "airportName": "Hinchinbrook Island"}, "BCG": {"code": "BCG", "countryCode": "GY", "country": "Guyana", "geoloc": {"lat": "7.700000", "lng": "-59.166667"}, "nearestCity": "Bemichi", "airportName": "Bemichi"}, "HNM": {"code": "HNM", "countryCode": "US", "country": "United States", "geoloc": {"lat": "20.800000", "lng": "-156.016667"}, "nearestCity": "Hana", "airportName": "Hana"}, "BCA": {"code": "BCA", "countryCode": "CU", "country": "Cuba", "geoloc": {"lat": "20.250000", "lng": "-74.350000"}, "nearestCity": "Baracoa", "airportName": "Baracoa"}, "HNO": {"code": "HNO", "countryCode": "CS", "country": "Serbia and Montenegro", "geoloc": {"lat": "42.566667", "lng": "18.533333"}, "nearestCity": "Hercegnovi", "airportName": "Hercegnovi"}, "HNN": {"code": "HNN", "countryCode": "PG", "country": "Papua New Guinea", "geoloc": {"lat": "-6.233333", "lng": "142.216667"}, "nearestCity": "Honinabi", "airportName": "Honinabi"}, "HNS": {"code": "HNS", "countryCode": "US", "country": "United States", "geoloc": {"lat": "59.250000", "lng": "-135.516667"}, "nearestCity": "Haines", "airportName": "Municipal"}, "BCX": {"code": "BCX", "countryCode": "RU", "country": "Russian Federation", "geoloc": {"lat": "53.933333", "lng": "58.333333"}, "nearestCity": "Beloreck", "airportName": "Beloreck"}, "BCY": {"code": "BCY", "countryCode": "ET", "country": "Ethiopia", "geoloc": {"lat": "6.216667", "lng": "36.666667"}, "nearestCity": "Bulchi", "airportName": "Bulchi"}, "BCZ": {"code": "BCZ", "countryCode": "AU", "country": "Australia", "geoloc": {"lat": "-13.783333", "lng": "137.800000"}, "nearestCity": "Bickerton Island", "airportName": "Bickerton Island"}, "HNY": {"code": "HNY", "countryCode": "CN", "country": "China", "geoloc": {"lat": "26.905278", "lng": "112.627778"}, "nearestCity": "Hengyang", "airportName": "Hengyang"}, "HNX": {"code": "HNX", "countryCode": "CA", "country": "Canada", "geoloc": {"lat": "51.631389", "lng": "-111.904167"}, "nearestCity": "Hanna", "airportName": "Hanna"}, "BCV": {"code": "BCV", "countryCode": "BZ", "country": "Belize", "geoloc": {"lat": "17.250000", "lng": "-88.766667"}, "nearestCity": "Belmopan", "airportName": "Belmopan"}, "BCW": {"code": "BCW", "countryCode": "MZ", "country": "Mozambique", "geoloc": {"lat": "-23.733333", "lng": "35.116667"}, "nearestCity": "Benguera Island", "airportName": "Benguera Island"}, "BCP": {"code": "BCP", "countryCode": "PG", "country": "Papua New Guinea", "geoloc": {"lat": "5.866667", "lng": "35.283333"}, "nearestCity": "Bambu", "airportName": "Bambu"}, "BCQ": {"code": "BCQ", "countryCode": "LY", "country": "Libya", "geoloc": {"lat": "-22.783333", "lng": "17.466667"}, "nearestCity": "Brack", "airportName": "Brack"}, "BCR": {"code": "BCR", "countryCode": "BR", "country": "Brazil", "geoloc": {"lat": "-8.633333", "lng": "-67.416667"}, "nearestCity": "Boca Do Acre", "airportName": "Boca Do Acre"}, "BCS": {"code": "BCS", "countryCode": "US", "country": "United States", "geoloc": {"lat": "30.050000", "lng": "-90.233333"}, "nearestCity": "Belle Chasse", "airportName": "Southern Seaplane"}, "SRB": {"code": "SRB", "countryCode": "BO", "country": "Bolivia", "geoloc": {"lat": "-14.166667", "lng": "-66.883333"}, "nearestCity": "Santa Rosa", "airportName": "Santa Rosa"}, "NOL": {"code": "NOL", "countryCode": "US", "country": "United States", "geoloc": {"lat": "50.483333", "lng": "21.450000"}, "nearestCity": "Nakolik River", "airportName": "Nakolik River"}, "SRA": {"code": "SRA", "countryCode": "BR", "country": "Brazil", "geoloc": {"lat": "-27.866667", "lng": "-54.483333"}, "nearestCity": "Santa Rosa", "airportName": "Santa Rosa"}, "SRF": {"code": "SRF", "countryCode": "US", "country": "United States", "geoloc": {"lat": "8.450000", "lng": "-73.916667"}, "nearestCity": "San Rafael", "airportName": "Hamilton Field"}, "SRG": {"code": "SRG", "countryCode": "ID", "country": "Indonesia", "geoloc": {"lat": "-6.983333", "lng": "110.383333"}, "nearestCity": "Semarang", "airportName": "Achmad Yani"}, "SRD": {"code": "SRD", "countryCode": "BO", "country": "Bolivia", "geoloc": {"lat": "-13.283333", "lng": "-64.700000"}, "nearestCity": "San Ramon", "airportName": "San Ramon"}, "SRE": {"code": "SRE", "countryCode": "BO", "country": "Bolivia", "geoloc": {"lat": "-19.006944", "lng": "-65.288611"}, "nearestCity": "Sucre", "airportName": "Juana Azurduy de Padilla"}, "SRJ": {"code": "SRJ", "countryCode": "BO", "country": "Bolivia", "geoloc": {"lat": "-14.816667", "lng": "-66.833333"}, "nearestCity": "San Borja", "airportName": "Capitan G Q Guardia"}, "SRK": {"code": "SRK", "countryCode": "SL", "country": "Sierra Leone", "geoloc": {"lat": "8.500000", "lng": "-13.508333"}, "nearestCity": "Sierra Leone", "airportName": "Sierra Leone"}, "SRH": {"code": "SRH", "countryCode": "TD", "country": "Chad", "geoloc": {"lat": "9.150000", "lng": "18.383333"}, "nearestCity": "Sarh", "airportName": "Sarh"}, "SRI": {"code": "SRI", "countryCode": "ID", "country": "Indonesia", "geoloc": {"lat": "-0.500000", "lng": "117.150000"}, "nearestCity": "Samarinda", "airportName": "Samarinda"}, "SRN": {"code": "SRN", "countryCode": "AU", "country": "Australia", "geoloc": {"lat": "-42.150000", "lng": "145.300000"}, "nearestCity": "Strahan", "airportName": "Strahan"}, "TJC": {"code": "TJC", "countryCode": "PA", "country": "Panama", "geoloc": {"lat": "9.416667", "lng": "-78.483333"}, "nearestCity": "Ticantiki", "airportName": "Ticantiki"}, "SRL": {"code": "SRL", "countryCode": "MX", "country": "Mexico", "geoloc": {"lat": "27.333333", "lng": "-112.266667"}, "nearestCity": "Santa Rosalia", "airportName": "Santa Rosalia"}, "SRM": {"code": "SRM", "countryCode": "AU", "country": "Australia", "geoloc": {"lat": "-24.050000", "lng": "139.066667"}, "nearestCity": "Sandringham", "airportName": "Sandringham"}, "SRR": {"code": "SRR", "countryCode": "AU", "country": "Australia", "geoloc": {"lat": "47.266667", "lng": "10.783333"}, "nearestCity": "Stradbroke Island", "airportName": "Dunwich"}, "SRS": {"code": "SRS", "countryCode": "CO", "country": "Colombia", "geoloc": {"lat": "8.666667", "lng": "-75.133333"}, "nearestCity": "San Marcos", "airportName": "Cartagena"}, "SRP": {"code": "SRP", "countryCode": "NO", "country": "Norway", "geoloc": {"lat": "59.792778", "lng": "5.339722"}, "nearestCity": "Stord", "airportName": "Stord Airport"}, "NOO": {"code": "NOO", "countryCode": "PG", "country": "Papua New Guinea", "geoloc": {"lat": "-9.083333", "lng": "147.033333"}, "nearestCity": "Naoro", "airportName": "Naoro"}, "SRV": {"code": "SRV", "countryCode": "US", "country": "United States", "geoloc": {"lat": "61.783333", "lng": "-156.583333"}, "nearestCity": "Stony River", "airportName": "Stony River"}, "SRW": {"code": "SRW", "countryCode": "US", "country": "United States", "geoloc": {"lat": "35.633333", "lng": "-80.516667"}, "nearestCity": "Salisbury", "airportName": "Rowan County"}, "SRT": {"code": "SRT", "countryCode": "UG", "country": "Uganda", "geoloc": {"lat": "1.716667", "lng": "33.616667"}, "nearestCity": "Soroti", "airportName": "Soroti"}, "SRU": {"code": "SRU", "countryCode": "US", "country": "United States", "geoloc": {"lat": "2.166667", "lng": "-76.100000"}, "nearestCity": "Santa Cruz", "airportName": "Skypark"}, "SRZ": {"code": "SRZ", "countryCode": "BO", "country": "Bolivia", "geoloc": {"lat": "-17.800000", "lng": "-63.166667"}, "nearestCity": "Santa Cruz", "airportName": "El Trompillo"}, "SRX": {"code": "SRX", "countryCode": "LY", "country": "Libya", "geoloc": {"lat": "31.200000", "lng": "16.583333"}, "nearestCity": "Sert", "airportName": "Sert"}, "SRY": {"code": "SRY", "countryCode": "IR", "country": "Iran", "geoloc": {"lat": "36.616667", "lng": "53.183333"}, "nearestCity": "Sary", "airportName": "Dashte Naz"}, "NOI": {"code": "NOI", "countryCode": "RU", "country": "Russian Federation", "geoloc": {"lat": "44.750000", "lng": "37.750000"}, "nearestCity": "Novorossijsk", "airportName": "Novorossijsk"}, "TDK": {"code": "TDK", "countryCode": "KZ", "country": "Kazakhstan", "geoloc": {"lat": "45.015556", "lng": "78.373889"}, "nearestCity": "Taldy-Kurgan", "airportName": "Taldy-Kurgan"}, "TDJ": {"code": "TDJ", "countryCode": "DJ", "country": "Djibouti", "geoloc": {"lat": "11.785278", "lng": "42.884444"}, "nearestCity": "Tadjoura", "airportName": "Tadjoura"}, "NMT": {"code": "NMT", "countryCode": "MM", "country": "Myanmar", "geoloc": {"lat": "23.083333", "lng": "97.400000"}, "nearestCity": "Namtu", "airportName": "Namtu"}, "NMU": {"code": "NMU", "countryCode": "MH", "country": "Marshall Islands", "geoloc": {"lat": "8.000000", "lng": "168.166667"}, "nearestCity": "Namu", "airportName": "Namu"}, "NMR": {"code": "NMR", "countryCode": "AU", "country": "Australia", "geoloc": {"lat": "-27.633333", "lng": "141.083333"}, "nearestCity": "Nappa Merry", "airportName": "Nappa Merry"}, "NMS": {"code": "NMS", "countryCode": "MM", "country": "Myanmar", "geoloc": {"lat": "20.883333", "lng": "97.750000"}, "nearestCity": "Namsang", "airportName": "Namsang"}, "NMP": {"code": "NMP", "countryCode": "AU", "country": "Australia", "geoloc": {"lat": "-20.166667", "lng": "143.966667"}, "nearestCity": "New Moon", "airportName": "New Moon"}, "TDL": {"code": "TDL", "countryCode": "AR", "country": "Argentina", "geoloc": {"lat": "-37.233333", "lng": "-59.216667"}, "nearestCity": "Tandil", "airportName": "Tandil"}, "TDB": {"code": "TDB", "countryCode": "PG", "country": "Papua New Guinea", "geoloc": {"lat": "-0.800000", "lng": "174.466667"}, "nearestCity": "Tetabedi", "airportName": "Tetabedi"}, "TDA": {"code": "TDA", "countryCode": "CO", "country": "Colombia", "geoloc": {"lat": "5.416667", "lng": "-71.666667"}, "nearestCity": "Trinidad", "airportName": "Trinidad"}, "TDG": {"code": "TDG", "countryCode": "PH", "country": "Philippines", "geoloc": {"lat": "9.083333", "lng": "126.083333"}, "nearestCity": "Tandag", "airportName": "Tandag"}, "TDD": {"code": "TDD", "countryCode": "BO", "country": "Bolivia", "geoloc": {"lat": "5.416667", "lng": "-71.666667"}, "nearestCity": "Trinidad", "airportName": "Trinidad"}, "NMG": {"code": "NMG", "countryCode": "PA", "country": "Panama", "geoloc": {"lat": "8.450000", "lng": "-78.916667"}, "nearestCity": "San Miguel", "airportName": "San Miguel"}, "TDX": {"code": "TDX", "countryCode": "TH", "country": "Thailand", "geoloc": {"lat": "12.268056", "lng": "102.316667"}, "nearestCity": "Trat", "airportName": "Trat"}, "NMB": {"code": "NMB", "countryCode": "IN", "country": "India", "geoloc": {"lat": "20.416667", "lng": "72.850000"}, "nearestCity": "Daman", "airportName": "Daman"}, "NOE": {"code": "NOE", "countryCode": "DE", "country": "Germany", "geoloc": {"lat": "53.616667", "lng": "7.150000"}, "nearestCity": "Norddeich", "airportName": "Norddeich"}, "NMN": {"code": "NMN", "countryCode": "PG", "country": "Papua New Guinea", "geoloc": {"lat": "-6.316667", "lng": "145.066667"}, "nearestCity": "Nomane", "airportName": "Nomane"}, "TDR": {"code": "TDR", "countryCode": "AU", "country": "Australia", "geoloc": {"lat": "51.433333", "lng": "-1.916667"}, "nearestCity": "Theodore", "airportName": "Theodore"}, "TDW": {"code": "TDW", "countryCode": "US", "country": "United States", "geoloc": {"lat": "35.166667", "lng": "-101.833333"}, "nearestCity": "Amarillo", "airportName": "Tradewind"}, "TDV": {"code": "TDV", "countryCode": "MG", "country": "Madagascar", "geoloc": {"lat": "-16.116667", "lng": "45.466667"}, "nearestCity": "Tanandava", "airportName": "Tanandava"}, "TDT": {"code": "TDT", "countryCode": "ZA", "country": "South Africa", "geoloc": {"lat": "-24.283333", "lng": "31.300000"}, "nearestCity": "Tanda Tula", "airportName": "Tanda Tula"}, "LOC": {"code": "LOC", "countryCode": "AU", "country": "Australia", "geoloc": {"lat": "-33.566667", "lng": "135.766667"}, "nearestCity": "Lock", "airportName": "Lock"}, "NOG": {"code": "NOG", "countryCode": "MX", "country": "Mexico", "geoloc": {"lat": "18.816667", "lng": "-97.166667"}, "nearestCity": "Nogales", "airportName": "Nogales"}, "LOF": {"code": "LOF", "countryCode": "MH", "country": "Marshall Islands", "geoloc": {"lat": "7.800000", "lng": "168.283333"}, "nearestCity": "Loen", "airportName": "Loen"}, "LOG": {"code": "LOG", "countryCode": "US", "country": "United States", "geoloc": {"lat": "46.116667", "lng": "-122.883333"}, "nearestCity": "Longview", "airportName": "Longview"}, "LOD": {"code": "LOD", "countryCode": "VU", "country": "Vanuatu", "geoloc": {"lat": "-15.366667", "lng": "167.950000"}, "nearestCity": "Longana", "airportName": "Longana"}, "LOE": {"code": "LOE", "countryCode": "TH", "country": "Thailand", "geoloc": {"lat": "17.450000", "lng": "101.733333"}, "nearestCity": "Loei", "airportName": "Loei"}, "LOK": {"code": "LOK", "countryCode": "KE", "country": "Kenya", "geoloc": {"lat": "3.100000", "lng": "36.716667"}, "nearestCity": "Lodwar", "airportName": "Lodwar"}, "LOH": {"code": "LOH", "countryCode": "EC", "country": "Ecuador", "geoloc": {"lat": "3.883333", "lng": "-79.233333"}, "nearestCity": "Catamayo, Loja", "airportName": "Camilo Ponce Enr\u00edquez Airport"}, "LOI": {"code": "LOI", "countryCode": "BR", "country": "Brazil", "geoloc": {"lat": "-4.383333", "lng": "-51.916667"}, "nearestCity": "Lontras", "airportName": "Helmuth Baungartem"}, "LOL": {"code": "LOL", "countryCode": "US", "country": "United States", "geoloc": {"lat": "40.058333", "lng": "-118.566667"}, "nearestCity": "Lovelock", "airportName": "Derby Field"}, "LOM": {"code": "LOM", "countryCode": "MX", "country": "Mexico", "geoloc": {"lat": "22.056944", "lng": "-104.070833"}, "nearestCity": "Lagos De Moreno", "airportName": "Francisco P. V. Y R."}, "LOR": {"code": "LOR", "countryCode": "US", "country": "United States", "geoloc": {"lat": "53.116667", "lng": "22.450000"}, "nearestCity": "Ozark", "airportName": "Lowe Army Heliport"}, "LOS": {"code": "LOS", "countryCode": "NG", "country": "Nigeria", "geoloc": {"lat": "6.577500", "lng": "3.321111"}, "nearestCity": "Lagos", "airportName": "Murtala Muhammed"}, "LOQ": {"code": "LOQ", "countryCode": "BW", "country": "Botswana", "geoloc": {"lat": "-25.200000", "lng": "25.666667"}, "nearestCity": "Lobatse", "airportName": "Lobatse"}, "LOV": {"code": "LOV", "countryCode": "MX", "country": "Mexico", "geoloc": {"lat": "26.950000", "lng": "-101.483333"}, "nearestCity": "Monclova", "airportName": "Monclova"}, "LOT": {"code": "LOT", "countryCode": "US", "country": "United States", "geoloc": {"lat": "41.600000", "lng": "-88.050000"}, "nearestCity": "Lockport", "airportName": "Lewis Lockport"}, "FHZ": {"code": "FHZ", "countryCode": "PF", "country": "French Polynesia", "geoloc": {"lat": "-16.000000", "lng": "-140.000000"}, "nearestCity": "Fakahina", "airportName": "Fakahina"}, "LOZ": {"code": "LOZ", "countryCode": "US", "country": "United States", "geoloc": {"lat": "37.083333", "lng": "-84.066667"}, "nearestCity": "London", "airportName": "Corbin-London"}, "NOC": {"code": "NOC", "countryCode": "IE", "country": "Ireland", "geoloc": {"lat": "53.912778", "lng": "-8.811944"}, "nearestCity": "Knock", "airportName": "Ireland West Airport Knock"}, "HLM": {"code": "HLM", "countryCode": "US", "country": "United States", "geoloc": {"lat": "42.783333", "lng": "-86.116667"}, "nearestCity": "Holland", "airportName": "Park Township"}, "OUN": {"code": "OUN", "countryCode": "US", "country": "United States", "geoloc": {"lat": "35.158333", "lng": "-97.466667"}, "nearestCity": "Norman", "airportName": "Max Westheimer"}, "HLI": {"code": "HLI", "countryCode": "US", "country": "United States", "geoloc": {"lat": "36.850000", "lng": "-121.400000"}, "nearestCity": "Hollister", "airportName": "Hollister"}, "TJV": {"code": "TJV", "countryCode": "IN", "country": "India", "geoloc": {"lat": "10.722500", "lng": "79.101667"}, "nearestCity": "Thanjavur", "airportName": "Thanjavur"}, "HLG": {"code": "HLG", "countryCode": "US", "country": "United States", "geoloc": {"lat": "16.196389", "lng": "122.103611"}, "nearestCity": "Wheeling", "airportName": "Ohio County"}, "HLF": {"code": "HLF", "countryCode": "SE", "country": "Sweden", "geoloc": {"lat": "57.525833", "lng": "15.823333"}, "nearestCity": "Hultsfred", "airportName": "Hultsfred - Vimmerby"}, "EBD": {"code": "EBD", "countryCode": "SD", "country": "Sudan", "geoloc": {"lat": "13.166667", "lng": "30.250000"}, "nearestCity": "El Obeid", "airportName": "El Obeid"}, "EBG": {"code": "EBG", "countryCode": "CO", "country": "Colombia", "geoloc": {"lat": "7.616667", "lng": "-74.816667"}, "nearestCity": "El Bagre", "airportName": "El Bagre"}, "EBA": {"code": "EBA", "countryCode": "IT", "country": "Italy", "geoloc": {"lat": "42.766667", "lng": "10.283333"}, "nearestCity": "Elba Island", "airportName": "Marina Di Campo"}, "EBB": {"code": "EBB", "countryCode": "UG", "country": "Uganda", "geoloc": {"lat": "0.060278", "lng": "32.450000"}, "nearestCity": "Entebbe", "airportName": "Entebbe"}, "EBL": {"code": "EBL", "countryCode": "IQ", "country": "Iraq", "geoloc": {"lat": "36.237500", "lng": "43.963056"}, "nearestCity": "Erbil", "airportName": "Erbil International"}, "EBM": {"code": "EBM", "countryCode": "TN", "country": "Tunisia", "geoloc": {"lat": "31.717222", "lng": "9.267222"}, "nearestCity": "El Borma", "airportName": "El Borma"}, "EBN": {"code": "EBN", "countryCode": "MH", "country": "Marshall Islands", "geoloc": {"lat": "9.333333", "lng": "166.800000"}, "nearestCity": "Ebadon", "airportName": "Ebadon"}, "EBJ": {"code": "EBJ", "countryCode": "DK", "country": "Denmark", "geoloc": {"lat": "55.500000", "lng": "8.483333"}, "nearestCity": "Esbjerg", "airportName": "Esbjerg"}, "EBU": {"code": "EBU", "countryCode": "FR", "country": "France", "geoloc": {"lat": "45.500000", "lng": "4.500000"}, "nearestCity": "St Etienne", "airportName": "Boutheon"}, "EBW": {"code": "EBW", "countryCode": "CM", "country": "Cameroon", "geoloc": {"lat": "2.850000", "lng": "11.183333"}, "nearestCity": "Ebolowa", "airportName": "Ebolowa"}, "RJB": {"code": "RJB", "countryCode": "NP", "country": "Nepal", "geoloc": {"lat": "26.516667", "lng": "86.733333"}, "nearestCity": "Rajbiraj", "airportName": "Rajbiraj"}, "RJA": {"code": "RJA", "countryCode": "IN", "country": "India", "geoloc": {"lat": "16.983333", "lng": "81.783333"}, "nearestCity": "Rajahmundry", "airportName": "Rajahmundry"}, "EBS": {"code": "EBS", "countryCode": "US", "country": "United States", "geoloc": {"lat": "42.466667", "lng": "-93.800000"}, "nearestCity": "Webster City", "airportName": "Municipal"}, "RJN": {"code": "RJN", "countryCode": "IR", "country": "Iran", "geoloc": {"lat": "30.297778", "lng": "56.051111"}, "nearestCity": "Rafsanjan", "airportName": "Rafsanjan"}, "RJL": {"code": "RJL", "countryCode": "ES", "country": "Spain", "geoloc": {"lat": "-29.500000", "lng": "-61.700000"}, "nearestCity": "Logrono", "airportName": "Agoncillo"}, "RJK": {"code": "RJK", "countryCode": "HR", "country": "Croatia", "geoloc": {"lat": "45.333333", "lng": "14.591667"}, "nearestCity": "Rijeka", "airportName": "Rijeka"}, "RJI": {"code": "RJI", "countryCode": "IN", "country": "India", "geoloc": {"lat": "33.368611", "lng": "74.302500"}, "nearestCity": "Rajouri", "airportName": "Rajouri"}, "RJH": {"code": "RJH", "countryCode": "BD", "country": "Bangladesh", "geoloc": {"lat": "24.416667", "lng": "88.508333"}, "nearestCity": "Rajshahi", "airportName": "Rajshahi"}, "DRS": {"code": "DRS", "countryCode": "DE", "country": "Germany", "geoloc": {"lat": "51.133333", "lng": "13.766667"}, "nearestCity": "Dresden", "airportName": "Dresden Arpt"}, "DRR": {"code": "DRR", "countryCode": "AU", "country": "Australia", "geoloc": {"lat": "-25.600000", "lng": "140.250000"}, "nearestCity": "Durrie", "airportName": "Durrie"}, "DRU": {"code": "DRU", "countryCode": "US", "country": "United States", "geoloc": {"lat": "46.616667", "lng": "-113.200000"}, "nearestCity": "Drummond", "airportName": "Drummond"}, "DRT": {"code": "DRT", "countryCode": "US", "country": "United States", "geoloc": {"lat": "29.366667", "lng": "-100.916667"}, "nearestCity": "Del Rio", "airportName": "International"}, "DRW": {"code": "DRW", "countryCode": "AU", "country": "Australia", "geoloc": {"lat": "-12.416667", "lng": "130.866667"}, "nearestCity": "Darwin", "airportName": "Darwin"}, "DRI": {"code": "DRI", "countryCode": "US", "country": "United States", "geoloc": {"lat": "53.200000", "lng": "5.450000"}, "nearestCity": "De Ridder", "airportName": "Beauregard Parish"}, "DRH": {"code": "DRH", "countryCode": "ID", "country": "Indonesia", "geoloc": {"lat": "-2.800000", "lng": "138.316667"}, "nearestCity": "Dabra", "airportName": "Dabra"}, "DRM": {"code": "DRM", "countryCode": "GR", "country": "Greece", "geoloc": {"lat": "41.150000", "lng": "24.133333"}, "nearestCity": "Drama", "airportName": "Drama"}, "DRO": {"code": "DRO", "countryCode": "US", "country": "United States", "geoloc": {"lat": "37.150000", "lng": "-107.750000"}, "nearestCity": "Durango", "airportName": "La Plata"}, "DRN": {"code": "DRN", "countryCode": "AU", "country": "Australia", "geoloc": {"lat": "-28.500000", "lng": "148.258333"}, "nearestCity": "Dirranbandi", "airportName": "Dirranbandi"}, "DRA": {"code": "DRA", "countryCode": "US", "country": "United States", "geoloc": {"lat": "-29.133333", "lng": "29.733333"}, "nearestCity": "Mercury", "airportName": "Desert Rock"}, "DRC": {"code": "DRC", "countryCode": "AO", "country": "Angola", "geoloc": {"lat": "-17.966667", "lng": "20.783333"}, "nearestCity": "Dirico", "airportName": "Dirico"}, "DRB": {"code": "DRB", "countryCode": "AU", "country": "Australia", "geoloc": {"lat": "-17.366667", "lng": "123.650000"}, "nearestCity": "Derby", "airportName": "Derby"}, "DRE": {"code": "DRE", "countryCode": "US", "country": "United States", "geoloc": {"lat": "46.016667", "lng": "-83.750000"}, "nearestCity": "Drummond Island", "airportName": "Drummond Island"}, "DRD": {"code": "DRD", "countryCode": "AU", "country": "Australia", "geoloc": {"lat": "-16.516667", "lng": "142.366667"}, "nearestCity": "Dorunda Station", "airportName": "Dorunda Station"}, "DRG": {"code": "DRG", "countryCode": "US", "country": "United States", "geoloc": {"lat": "66.083333", "lng": "-162.766667"}, "nearestCity": "Deering", "airportName": "Deering"}, "DRF": {"code": "DRF", "countryCode": "US", "country": "United States", "geoloc": {"lat": "60.583333", "lng": "-152.150000"}, "nearestCity": "Drift River", "airportName": "Drift River"}, "INK": {"code": "INK", "countryCode": "US", "country": "United States", "geoloc": {"lat": "31.783333", "lng": "-103.200000"}, "nearestCity": "Wink", "airportName": "Wink"}, "CXP": {"code": "CXP", "countryCode": "ID", "country": "Indonesia", "geoloc": {"lat": "7.733333", "lng": "109.000000"}, "nearestCity": "Cilacap", "airportName": "Tunggul Wulung"}, "CXQ": {"code": "CXQ", "countryCode": "AU", "country": "Australia", "geoloc": {"lat": "-18.916667", "lng": "125.916667"}, "nearestCity": "Christmas Creek", "airportName": "Christmas Creek"}, "CXR": {"code": "CXR", "countryCode": "VN", "country": "Viet Nam", "geoloc": {"lat": "12.227500", "lng": "109.192222"}, "nearestCity": "Nha Trang", "airportName": "Nha Trang"}, "CXT": {"code": "CXT", "countryCode": "AU", "country": "Australia", "geoloc": {"lat": "-20.050000", "lng": "146.266667"}, "nearestCity": "Charters Towers", "airportName": "Charters Towers"}, "CXY": {"code": "CXY", "countryCode": "BS", "country": "Bahamas", "geoloc": {"lat": "24.315000", "lng": "-75.453611"}, "nearestCity": "Cat Cays", "airportName": "Cat Cays"}, "CXA": {"code": "CXA", "countryCode": "VE", "country": "Venezuela", "geoloc": {"lat": "7.626111", "lng": "-66.165000"}, "nearestCity": "Caicara Del Orinoco", "airportName": "Caicara Del Orinoco"}, "CXC": {"code": "CXC", "countryCode": "US", "country": "United States", "geoloc": {"lat": "61.566667", "lng": "-144.416667"}, "nearestCity": "Chitina", "airportName": "Chitina Arpt"}, "CXF": {"code": "CXF", "countryCode": "US", "country": "United States", "geoloc": {"lat": "67.266667", "lng": "-150.166667"}, "nearestCity": "Coldfoot", "airportName": "Coldfoot"}, "CXH": {"code": "CXH", "countryCode": "CA", "country": "Canada", "geoloc": {"lat": "49.289722", "lng": "-123.115833"}, "nearestCity": "Vancouver", "airportName": "Coal Harbour"}, "CXI": {"code": "CXI", "countryCode": "KI", "country": "Kiribati", "geoloc": {"lat": "1.986111", "lng": "-157.349722"}, "nearestCity": "Christmas Island", "airportName": "Cassidy International Airport"}, "CXJ": {"code": "CXJ", "countryCode": "BR", "country": "Brazil", "geoloc": {"lat": "-29.196944", "lng": "-51.187500"}, "nearestCity": "Caxias Do Sul", "airportName": "Campo Dos Bugres"},